City,State,Latitude,Longitude,2017-01,2017-02,2017-03,2017-04,2017-05,2017-06,2017-07,2017-08,2017-09,2017-10,2017-11,2017-12,2018-01,2018-02,2018-03,2018-04,2018-05,2018-06,2018-07,2018-08,2018-09,2018-10,2018-11,2018-12,2019-01,2019-02,2019-03,2019-04,2019-05,2019-06,2019-07,2019-08,2019-09,2019-10,2019-11,2019-12,Jan_temp,Jan_precip,Jan_humid,Jan_cloud,Feb_temp,Feb_precip,Feb_humid,Feb_cloud,Mar_temp,Mar_precip,Mar_humid,Mar_cloud,Apr_temp,Apr_precip,Apr_humid,Apr_cloud,May_temp,May_precip,May_humid,May_cloud,Jun_temp,Jun_precip,Jun_humid,Jun_cloud,Jul_temp,Jul_precip,Jul_humid,Jul_cloud,Aug_temp,Aug_precip,Aug_humid,Aug_cloud,Sep_temp,Sep_precip,Sep_humid,Sep_cloud,Oct_temp,Oct_precip,Oct_humid,Oct_cloud,Nov_temp,Nov_precip,Nov_humid,Nov_cloud,Dec_temp,Dec_precip,Dec_humid,Dec_cloud
Muncie,Indiana,40.1933767,-85.3863599,,,,,,,,,,,,,,,,,,,166.0,170.0,168,148,124,124,65,96,141,140,186,193,176,211,142,126,155,190.0,29.6,3.0,74.02,63.2,37.9,2.9,71.05,57.4,39.6,4.2,65.8,49.8,53.0,5.2,62.87,46.6,66.6,4.5,65.45,39.4,73.8,6.1,65.11,34.8,76.3,5.8,70.69,29.7,73.3,3.4,72.22,29.5,70.3,3.4,70.8,31.9,57.7,3.0,67.84,42.1,40.3,3.8,71.21,56.6,34.8,2.2,72.23,51.4
Temple,Texas,31.0982344,-97.342782,84.0,95.0,135.0,108.0,132.0,160.0,125.0,140.0,110.0,115.0,109.0,107.0,73.0,79.0,121.0,130.0,168.0,138.0,131.0,157.0,106,114,94,92,84,105,139,134,166,152,152,183,139,113,94,95.0,48.3,2.8,67.72,35.9,54.7,2.0,76.98,43.7,61.2,3.1,69.04,33.0,65.7,4.7,71.54,27.8,74.9,5.0,74.83,30.3,81.3,3.6,73.19,32.0,85.2,1.0,63.77,15.4,84.8,4.7,65.09,18.5,79.5,3.8,71.63,22.8,67.2,6.1,70.99,26.5,56.5,1.1,73.42,34.6,49.3,2.3,72.91,34.2
Missouri City,Texas,29.6185669,-95.5377215,106.0,113.0,158.0,130.0,187.0,175.0,174.0,111.0,111.0,136.0,118.0,141.0,114.0,98.0,136.0,138.0,169.0,152.0,147.0,182.0,113,142,116,151,93,109,142,130,195,160,198,172,136,161,123,118.0,53.4,5.3,71.82,39.3,63.6,4.2,79.37,67.9,65.8,3.6,71.0,40.3,68.2,3.2,73.66,32.9,77.1,7.1,75.93,42.0,81.6,6.5,76.88,37.4,83.6,3.5,74.83,22.7,83.4,14.5,76.93,27.2,80.1,6.4,79.11,29.6,72.0,3.9,73.23,33.8,62.8,1.5,75.05,43.3,55.8,4.3,73.43,47.1
Redlands,California,34.055569299999995,-117.1825381,73.0,77.0,91.0,78.0,114.0,121.0,92.0,108.0,73.0,109.0,58.0,68.0,70.0,59.0,76.0,82.0,90.0,98.0,107.0,77.0,67,77,71,58,64,54,86,88,79,98,101,77,91,84,60,72.0,53.9,2.7,62.48,31.3,52.1,3.7,64.27,33.5,58.0,1.6,61.03,33.3,63.3,0.1,53.82,25.5,63.6,0.4,63.28,41.2,72.7,0.0,56.95,22.8,80.1,0.0,49.3,15.9,79.3,0.3,51.0,12.2,75.0,0.0,52.0,18.8,67.7,0.5,44.16,15.4,59.3,1.2,46.29,24.1,52.5,1.7,49.1,24.7
Santa Fe,New Mexico,35.686975200000006,-105.937799,208.0,174.0,244.0,239.0,284.0,308.0,305.0,276.0,286.0,247.0,257.0,230.0,228.0,200.0,266.0,273.0,285.0,299.0,275.0,309.0,218,238,233,176,145,161,212,208,233,245,242,237,253,214,204,184.0,31.6,0.7,61.26,26.2,37.1,0.4,52.35,26.1,44.7,0.7,44.38,22.8,51.7,0.7,39.96,18.6,59.1,0.5,35.58,16.7,71.1,0.3,30.87,8.5,73.0,2.3,45.99,19.6,70.3,2.2,51.06,19.3,65.1,1.9,47.93,19.8,50.3,1.5,51.74,21.8,40.4,0.8,51.94,15.7,32.3,0.3,55.47,19.2
Lauderhill,Florida,26.1403635,-80.2133808,107.0,117.0,129.0,111.0,153.0,108.0,106.0,163.0,83.0,125.0,100.0,135.0,119.0,118.0,145.0,168.0,151.0,109.0,118.0,141.0,103,171,122,110,106,93,121,141,163,90,145,131,122,155,116,146.0,68.2,3.0,73.94,45.3,74.3,1.6,76.13,38.5,72.1,1.5,65.69,36.4,77.3,3.0,67.62,38.0,80.3,6.7,72.04,45.4,82.2,9.3,77.55,45.9,83.9,5.6,74.59,41.4,83.3,10.0,78.1,41.6,83.2,7.2,76.56,45.7,80.4,6.0,77.44,51.5,74.8,5.0,78.22,49.9,70.7,4.0,77.27,45.2
Milpitas,California,37.4323341,-121.8995741,34.0,26.0,42.0,43.0,61.0,69.0,57.0,56.0,47.0,48.0,39.0,42.0,31.0,34.0,39.0,64.0,58.0,50.0,63.0,72.0,72,64,58,57,47,50,71,51,86,79,89,75,43,53,52,53.0,52.0,3.9,76.8,60.7,52.5,3.8,68.11,53.6,55.7,2.4,69.85,54.3,59.6,1.0,66.29,48.3,61.6,0.5,67.7,51.2,67.5,0.0,63.24,30.1,69.1,0.0,66.76,26.0,69.5,0.0,68.6,35.3,68.5,0.0,62.22,29.5,63.5,0.1,57.16,25.2,56.7,1.4,67.24,45.2,51.8,1.1,70.38,47.1
Palatine,Illinois,42.1103041,-88.03424,,,,,,,,,,,,,,,,,,,,,124,163,115,114,84,89,110,122,172,151,163,138,137,186,102,116.0,25.3,1.8,73.2,62.4,31.2,2.2,69.64,57.0,36.4,2.4,63.75,54.2,47.7,4.6,62.93,54.2,60.1,6.5,67.55,54.3,69.9,6.1,67.31,46.4,75.6,4.8,67.39,35.2,73.0,4.0,69.04,41.8,69.0,4.2,69.61,43.5,53.8,6.5,70.02,54.1,36.8,1.9,70.11,63.3,31.8,1.6,70.82,56.3
Missoula,Montana,46.8721284,-113.9940314,80.0,59.0,99.0,108.0,131.0,188.0,139.0,166.0,130.0,124.0,83.0,95.0,73.0,79.0,103.0,96.0,156.0,168.0,144.0,159.0,130,128,95,87,69,55,99,107,135,155,168,138,128,139,104,97.0,22.8,0.9,81.86,69.5,23.3,1.9,75.58,76.6,34.6,1.1,69.78,57.5,43.8,2.1,65.34,65.0,55.3,1.7,60.03,45.1,60.7,1.8,58.32,38.5,70.3,0.3,43.07,9.2,68.0,0.7,46.0,15.0,56.8,1.3,57.39,42.5,40.9,0.8,68.53,48.3,32.4,1.7,79.12,62.6,26.3,1.1,81.05,72.4
Rock Hill,South Carolina,34.9248667,-81.02507840000001,174.0,182.0,269.0,205.0,240.0,261.0,245.0,304.0,225.0,256.0,247.0,276.0,203.0,250.0,264.0,220.0,291.0,272.0,265.0,278.0,278,260,204,247,172,149,236,262,258,262,244,249,224,223,184,214.0,43.2,3.9,68.57,36.8,52.0,2.7,68.71,42.4,51.2,3.1,60.86,37.7,62.1,5.5,68.23,34.1,71.4,5.1,72.71,34.0,76.2,3.6,72.46,31.5,78.9,3.7,74.19,27.9,77.1,4.8,78.82,33.6,74.7,2.9,74.87,28.6,63.7,3.7,78.16,32.6,48.9,3.4,75.05,36.7,45.4,5.1,72.63,41.6
Jacksonville,North Carolina,34.7540524,-77.43024140000001,305.0,301.0,421.0,310.0,308.0,396.0,405.0,421.0,330.0,310.0,253.0,280.0,260.0,304.0,374.0,328.0,358.0,392.0,432.0,433.0,227,330,253,253,260,292,287,301,375,381,432,422,321,308,291,274.0,45.6,4.1,71.7,38.0,55.6,1.8,71.96,44.0,52.6,3.0,65.32,39.5,64.4,5.4,70.96,36.6,73.5,5.8,76.58,37.6,77.8,4.5,78.8,35.7,80.3,7.6,80.25,34.5,79.3,9.6,82.22,41.3,76.8,11.4,80.09,35.3,67.7,3.0,77.96,38.2,53.9,3.5,78.1,42.5,49.7,4.2,76.96,43.0
Franklin,Tennessee,35.9250637,-86.86888990000001,106.0,117.0,175.0,174.0,227.0,257.0,218.0,232.0,175.0,196.0,147.0,160.0,144.0,116.0,173.0,205.0,211.0,239.0,224.0,231.0,174,207,152,128,129,128,152,196,273,259,268,226,184,205,208,174.0,40.4,3.2,68.89,45.4,49.4,7.8,70.26,46.8,50.4,4.0,61.24,39.8,60.4,6.3,65.13,38.4,71.7,4.1,70.2,39.5,76.6,5.7,70.86,40.6,79.9,4.5,72.72,36.8,77.9,6.1,73.2,37.6,75.1,3.3,71.64,29.9,61.9,4.5,73.05,32.2,47.3,5.2,70.97,38.1,43.6,4.8,71.46,42.4
Flagstaff,Arizona,35.1982836,-111.651302,102.0,95.0,130.0,153.0,194.0,205.0,202.0,187.0,176.0,161.0,112.0,166.0,116.0,100.0,171.0,156.0,177.0,235.0,176.0,187.0,144,142,99,79,65,60,102,147,149,148,188,165,142,128,122,111.0,31.4,2.9,65.71,32.4,32.3,3.8,65.19,33.6,39.9,1.9,53.75,22.6,48.1,0.4,37.95,13.6,51.4,1.6,44.62,20.2,65.4,0.2,27.84,5.7,68.0,2.9,50.16,29.9,65.8,3.0,53.95,22.2,59.3,1.1,51.11,20.3,47.2,1.4,47.23,18.2,38.8,2.5,51.75,13.8,31.4,1.5,56.19,21.0
Flower Mound,Texas,33.0145673,-97.0969552,71.0,75.0,133.0,114.0,178.0,173.0,140.0,147.0,123.0,126.0,106.0,102.0,72.0,72.0,104.0,130.0,164.0,150.0,160.0,163.0,101,104,118,103,64,96,112,143,154,134,174,148,105,95,81,104.0,46.2,1.9,60.6,52.6,52.6,4.3,68.73,66.8,60.3,2.3,59.45,57.6,65.1,3.7,63.78,57.2,75.5,4.0,65.0,55.7,82.0,5.0,65.42,53.5,86.0,1.6,58.55,46.4,84.7,3.7,62.53,49.7,80.0,3.5,65.78,49.8,66.2,6.7,64.71,48.6,55.1,1.1,64.56,55.4,48.3,3.0,64.85,58.5
Weston,Florida,26.100365399999998,-80.3997748,71.0,86.0,130.0,131.0,151.0,162.0,150.0,135.0,100.0,116.0,118.0,106.0,88.0,104.0,114.0,121.0,123.0,180.0,152.0,152.0,95,111,97,110,85,78,107,132,147,102,158,129,96,120,87,118.0,68.1,2.6,72.93,49.7,74.0,1.4,74.75,43.7,72.0,1.7,64.95,40.1,77.1,3.2,67.67,41.7,79.9,7.8,73.07,46.6,82.1,10.9,77.67,42.6,84.1,8.6,74.62,36.6,83.7,12.3,77.15,38.3,83.7,7.3,75.35,41.5,81.0,5.8,75.95,46.1,75.3,3.5,76.09,45.4,71.2,3.3,75.13,41.6
Waterloo,Iowa,42.492785999999995,-92.3425775,87.0,70.0,89.0,114.0,147.0,159.0,144.0,125.0,116.0,150.0,104.0,110.0,45.0,59.0,105.0,89.0,128.0,144.0,106.0,102.0,99,110,88,97,51,92,92,84,141,96,109,136,97,95,91,87.0,19.7,2.2,78.33,52.3,23.8,2.0,77.51,43.0,33.1,1.9,72.52,48.6,46.6,3.0,68.34,45.9,61.0,4.6,70.7,46.0,71.1,6.9,69.96,33.9,73.9,3.1,75.38,22.4,69.5,4.0,77.04,33.2,66.3,6.5,75.87,35.1,49.0,6.0,73.43,48.6,32.9,1.6,75.04,52.4,26.9,1.3,75.23,45.6
Union City,New Jersey,40.779545500000005,-74.02375119999999,45.0,33.0,58.0,32.0,58.0,22.0,41.0,57.0,38.0,36.0,42.0,46.0,34.0,51.0,49.0,51.0,42.0,44.0,42.0,60.0,48,44,40,34,39,58,31,47,43,26,57,39,40,45,43,30.0,34.1,3.8,60.74,40.3,39.1,3.9,61.16,36.5,40.0,4.7,53.74,37.9,53.0,4.7,59.85,41.6,62.8,5.9,66.68,44.0,71.8,4.5,62.87,32.5,77.9,6.6,65.89,29.1,75.6,5.4,68.1,29.8,70.4,3.1,68.95,36.1,60.6,5.4,68.58,39.6,45.1,3.8,61.29,34.6,37.8,5.2,63.6,41.0
Mount Vernon,New York,40.9125992,-73.8370786,17.0,20.0,20.0,21.0,25.0,22.0,22.0,38.0,22.0,28.0,30.0,32.0,24.0,20.0,25.0,17.0,12.0,15.0,14.0,17.0,14,16,9,20,28,19,16,23,23,23,24,28,28,26,25,25.0,34.4,6.0,63.26,48.5,38.5,3.2,62.15,33.4,39.4,4.6,52.47,34.0,52.6,4.3,63.16,40.0,61.9,5.9,64.57,48.7,71.7,4.4,61.64,42.1,77.7,4.7,64.5,39.8,75.3,3.8,65.42,36.5,70.3,3.4,69.8,43.4,60.1,4.0,67.74,43.2,45.1,4.8,61.87,43.6,38.0,5.1,62.48,43.8
Fort Myers,Florida,26.640628000000003,-81.87230840000001,628.0,633.0,924.0,832.0,894.0,821.0,728.0,751.0,484.0,605.0,572.0,741.0,666.0,629.0,850.0,968.0,923.0,744.0,766.0,794.0,612,685,643,591,545,656,742,773,698,596,654,643,560,590,514,756.0,63.8,2.6,72.8,12.0,72.2,1.3,74.01,1.1,69.3,0.5,66.88,1.1,75.2,2.0,68.63,1.7,79.2,6.1,72.79,17.1,82.1,10.6,77.05,11.7,82.0,8.7,79.4,8.3,81.5,14.3,81.3,9.0,81.8,7.7,77.4,10.6,79.8,3.6,75.01,9.0,71.8,0.9,76.39,11.1,68.6,3.0,75.43,11.8
Dothan,Alabama,31.223231300000002,-85.39048879999999,55.0,81.0,111.0,99.0,106.0,101.0,122.0,114.0,84.0,86.0,95.0,95.0,79.0,79.0,100.0,95.0,143.0,136.0,132.0,113.0,92,114,78,74,106,115,95,125,118,136,126,114,145,122,114,83.0,50.8,7.5,70.63,35.0,61.2,5.9,76.13,50.9,59.6,2.6,63.65,35.6,67.1,4.0,66.24,30.9,75.7,6.6,68.27,32.1,79.6,5.1,74.42,37.2,80.9,4.6,76.51,29.7,80.0,6.2,78.99,31.2,78.8,4.5,73.89,22.7,70.9,5.5,73.17,30.9,56.8,3.4,75.99,32.7,53.5,8.3,77.49,50.3
Rancho Cordova,California,38.5890723,-121.302728,66.0,62.0,111.0,121.0,122.0,131.0,99.0,99.0,101.0,107.0,105.0,96.0,62.0,81.0,75.0,109.0,113.0,126.0,116.0,113.0,110,91,85,73,65,97,113,109,127,128,156,102,91,104,97,69.0,48.3,6.5,87.27,56.6,49.3,5.9,74.2,42.2,54.0,3.5,73.52,43.0,59.5,1.2,67.26,34.1,63.9,2.5,63.06,29.0,73.6,0.0,49.96,11.0,77.3,0.0,45.33,9.1,75.7,0.0,50.71,9.9,71.2,0.1,51.11,13.6,62.8,0.1,47.64,13.4,53.6,2.1,69.43,37.9,47.6,2.1,79.37,40.3
Redondo Beach,California,33.8491816,-118.3884078,58.0,62.0,92.0,77.0,92.0,111.0,107.0,106.0,96.0,74.0,67.0,75.0,52.0,54.0,80.0,79.0,75.0,89.0,73.0,97.0,53,68,48,69,44,61,82,94,78,87,74,56,66,78,73,69.0,57.9,4.6,66.72,43.7,56.0,2.7,66.72,44.1,59.2,1.6,67.47,43.0,61.9,0.1,66.81,39.5,62.1,0.3,72.18,56.4,65.9,0.0,75.42,56.9,71.3,0.0,74.41,40.0,71.9,0.0,74.98,38.9,70.8,0.0,72.39,40.1,68.9,0.2,61.19,28.7,63.3,1.1,63.24,36.3,58.7,2.0,56.41,33.1
Jackson,Tennessee,35.6145169,-88.8139469,92.0,88.0,130.0,137.0,166.0,169.0,122.0,150.0,131.0,112.0,115.0,157.0,80.0,100.0,104.0,145.0,167.0,131.0,167.0,132.0,116,178,125,106,104,96,137,157,178,169,181,166,154,184,169,126.0,40.4,3.9,73.33,49.8,49.4,8.9,75.24,55.3,51.2,4.4,67.01,44.0,60.5,5.9,70.01,37.1,71.6,3.8,75.19,30.1,76.7,3.9,77.49,26.3,79.6,6.6,80.73,25.7,77.4,3.5,81.45,26.2,74.4,3.3,78.1,22.5,61.4,4.2,78.13,31.2,47.7,4.1,75.15,40.7,43.1,5.4,76.53,45.3
Pasco,Washington,46.2305049,-119.09223159999999,51.0,64.0,71.0,93.0,105.0,104.0,84.0,104.0,96.0,82.0,92.0,101.0,70.0,70.0,96.0,80.0,84.0,94.0,122.0,100.0,96,95,85,69,68,60,79,96,95,99,131,141,135,137,98,112.0,32.8,1.2,84.76,61.5,32.9,1.1,76.89,49.0,42.9,0.8,68.07,37.7,54.6,1.1,55.72,37.9,65.3,0.6,52.57,22.7,70.1,0.3,46.46,15.0,77.0,0.0,42.72,3.6,75.4,0.1,48.61,10.1,64.8,0.2,55.96,19.3,50.4,0.7,63.97,21.8,40.2,0.7,77.12,39.7,35.5,0.8,81.67,64.5
Eau Claire,Wisconsin,44.811349,-91.4984941,61.0,64.0,87.0,113.0,137.0,159.0,147.0,146.0,120.0,100.0,74.0,73.0,70.0,54.0,75.0,104.0,155.0,147.0,123.0,125.0,108,116,101,89,61,61,70,87,122,143,133,132,105,136,107,61.0,15.5,1.0,76.7,50.1,18.9,1.3,73.15,41.3,29.2,0.9,65.39,42.4,42.4,2.5,64.57,46.3,58.0,4.0,65.62,46.3,67.6,3.9,69.23,39.0,71.6,3.9,72.22,29.2,67.2,4.8,76.44,40.6,63.5,3.9,75.47,42.4,46.4,4.4,72.05,57.6,29.8,1.0,71.84,61.5,21.5,1.0,77.1,60.0
North Richland Hills,Texas,32.8342952,-97.22890290000001,81.0,86.0,103.0,117.0,161.0,124.0,108.0,141.0,110.0,120.0,93.0,118.0,87.0,79.0,97.0,115.0,109.0,138.0,123.0,137.0,86,107,93,85,76,75,95,118,150,114,113,128,107,121,79,100.0,46.7,1.8,59.22,41.7,52.8,3.7,67.91,57.4,60.6,2.1,58.86,46.3,65.5,3.8,63.6,47.2,76.0,3.5,64.72,45.7,82.5,4.5,65.05,43.1,85.9,1.9,59.06,33.0,84.7,4.1,63.29,37.9,79.6,3.9,67.32,42.3,66.1,6.8,65.25,42.4,55.3,1.2,64.99,45.9,48.5,2.8,65.48,49.0
Bismarck,North Dakota,46.808326799999996,-100.7837392,75.0,57.0,91.0,78.0,125.0,131.0,131.0,139.0,115.0,100.0,111.0,97.0,73.0,49.0,98.0,106.0,125.0,160.0,114.0,135.0,100,104,93,69,78,56,106,97,146,106,132,148,131,113,89,89.0,13.3,1.6,78.57,45.5,10.9,1.0,74.63,42.5,27.0,1.1,77.43,47.9,41.9,0.7,64.07,41.6,57.4,1.6,60.26,38.4,68.3,2.7,61.17,31.0,73.2,3.0,65.19,19.7,68.0,3.7,68.67,27.1,59.2,3.1,72.5,41.1,42.4,1.6,67.04,41.9,28.8,0.7,76.06,55.3,20.4,0.6,77.47,47.2
Yorba Linda,California,33.8885035,-117.8132571,78.0,69.0,114.0,104.0,113.0,127.0,106.0,116.0,104.0,81.0,78.0,92.0,60.0,63.0,100.0,95.0,109.0,115.0,81.0,119.0,66,92,76,59,61,90,84,91,85,100,113,106,78,89,84,81.0,57.1,4.6,63.48,35.8,54.9,3.0,66.41,41.2,59.8,1.4,63.27,36.9,63.8,0.1,59.79,30.1,64.1,0.5,66.09,49.4,70.3,0.0,65.45,37.0,76.9,0.0,61.02,19.4,76.6,0.0,61.98,18.6,73.5,0.0,61.9,25.7,69.4,0.3,52.26,21.5,62.2,1.2,57.77,26.1,56.3,2.0,56.21,25.1
Kenner,Louisiana,29.9940924,-90.2417434,64.0,56.0,84.0,69.0,93.0,72.0,82.0,88.0,72.0,71.0,66.0,66.0,55.0,58.0,61.0,83.0,85.0,82.0,82.0,90.0,65,60,59,56,46,42,75,69,69,56,79,67,56,70,59,51.0,54.3,5.1,73.95,60.3,65.2,3.9,80.8,65.9,64.8,2.5,70.63,57.4,69.6,6.0,71.15,52.8,78.0,6.5,72.56,53.2,82.2,8.8,75.75,63.9,83.2,7.9,77.67,61.4,83.1,9.8,79.13,65.8,82.4,1.4,73.83,52.9,74.6,7.1,76.58,54.0,61.5,2.6,75.28,57.3,57.6,4.5,77.58,65.4
Walnut Creek,California,37.9100783,-122.06518190000001,177.0,179.0,277.0,308.0,297.0,352.0,313.0,335.0,290.0,315.0,267.0,238.0,165.0,233.0,293.0,302.0,371.0,324.0,324.0,271.0,247,259,272,205,137,176,243,287,362,321,322,283,237,279,227,253.0,50.9,5.1,79.21,36.2,51.3,4.3,71.16,23.5,55.0,3.4,72.73,20.9,60.1,1.7,67.21,16.9,62.3,0.4,64.77,21.1,69.9,0.0,55.39,7.6,71.4,0.0,54.42,4.6,71.3,0.0,57.83,12.1,70.1,0.0,56.0,8.6,64.2,0.0,49.03,6.8,56.0,2.2,65.8,25.5,50.8,1.8,70.1,22.6
Frederick,Maryland,39.414268799999995,-77.41054090000002,178.0,188.0,192.0,191.0,249.0,382.0,186.0,255.0,217.0,188.0,198.0,189.0,232.0,151.0,177.0,212.0,236.0,323.0,185.0,241.0,223,175,177,181,180,116,166,179,248,311,205,294,248,230,198,220.0,33.7,4.9,68.76,47.8,39.4,4.8,68.9,43.5,40.3,5.5,60.71,44.0,56.1,6.0,62.46,44.7,64.9,9.9,74.02,50.8,72.0,5.1,68.95,37.1,76.2,11.3,73.5,34.3,73.6,7.8,77.89,38.8,68.8,8.2,78.41,38.8,59.3,7.3,75.25,42.0,43.4,4.6,68.71,43.9,36.9,4.3,71.87,48.6
Oshkosh,Wisconsin,44.024706200000004,-88.5426136,53.0,30.0,70.0,95.0,119.0,127.0,112.0,121.0,91.0,126.0,83.0,64.0,78.0,68.0,63.0,114.0,97.0,132.0,109.0,100.0,133,115,75,57,61,58,67,75,105,91,144,129,107,110,87,69.0,19.6,1.4,75.15,52.4,23.4,1.3,73.04,46.4,30.8,1.3,67.08,40.4,43.3,3.6,66.16,48.6,57.8,5.1,67.93,45.4,67.6,5.2,69.18,38.6,72.5,3.7,71.02,28.9,68.6,4.8,74.66,36.9,64.0,4.1,77.72,38.6,49.1,4.7,75.04,54.1,32.4,1.6,72.96,62.1,25.7,1.3,77.46,55.7
Pittsburg,California,38.027976200000005,-121.88468059999998,110.0,107.0,158.0,122.0,161.0,205.0,217.0,181.0,178.0,215.0,146.0,182.0,144.0,104.0,146.0,145.0,150.0,124.0,138.0,164.0,117,151,150,104,109,86,145,153,154,159,171,168,130,147,133,145.0,50.2,5.8,78.1,18.0,50.9,4.3,68.46,0.5,55.0,3.4,69.88,0.9,61.2,1.7,60.6,2.3,62.2,0.4,62.2,10.0,70.9,0.0,52.7,2.5,72.2,0.0,51.94,1.4,72.6,0.0,54.98,5.6,70.5,0.1,52.96,2.8,64.9,0.0,44.98,2.6,56.1,2.4,61.78,12.6,50.9,1.8,68.02,9.7
Palo Alto,California,37.441883399999995,-122.14301950000001,21.0,28.0,61.0,48.0,54.0,68.0,52.0,56.0,44.0,55.0,55.0,56.0,32.0,34.0,66.0,43.0,67.0,56.0,52.0,61.0,36,67,42,33,41,31,51,59,60,42,46,48,46,51,46,42.0,51.6,4.2,79.38,45.3,52.3,3.9,71.82,31.8,55.1,2.5,73.49,32.1,58.7,1.0,67.79,25.0,60.2,0.3,70.3,35.0,65.7,0.0,67.22,18.9,66.1,0.0,73.86,21.1,67.0,0.0,73.21,25.7,66.6,0.0,67.12,19.6,62.4,0.1,60.43,14.3,55.3,1.3,72.73,25.5,51.5,0.8,72.12,30.1
Bossier City,Louisiana,32.5159852,-93.7321228,77.0,61.0,106.0,104.0,128.0,137.0,138.0,130.0,113.0,118.0,109.0,106.0,60.0,56.0,93.0,81.0,110.0,159.0,152.0,99.0,85,111,78,83,67,66,80,106,116,125,136,111,123,102,62,61.0,48.3,3.1,67.5,46.7,55.5,5.2,76.23,60.2,60.7,3.4,64.5,43.4,65.7,5.2,68.89,39.0,75.9,5.0,69.97,35.4,81.2,4.6,71.06,35.2,84.1,2.6,69.16,27.3,83.4,3.4,71.27,29.4,79.8,4.7,71.74,27.1,67.5,5.6,72.78,32.6,55.8,2.9,72.22,41.1,50.3,6.0,71.1,44.1
Portland,Maine,43.659099299999994,-70.2568189,,,,,,113.0,108.0,106.0,86.0,66.0,74.0,71.0,65.0,45.0,55.0,78.0,85.0,93.0,102.0,104.0,80,82,82,71,47,51,59,74,103,81,117,106,82,88,75,85.0,26.6,4.2,65.14,23.3,29.7,4.2,66.1,4.2,34.1,2.7,58.13,5.1,43.2,5.7,70.13,11.4,54.2,3.7,72.02,27.9,62.3,3.9,73.74,27.0,71.6,2.4,70.12,19.9,69.6,3.8,73.51,21.0,62.5,2.9,75.84,21.8,51.5,5.6,76.88,25.1,37.0,5.0,68.51,29.1,31.1,5.1,63.01,19.1
Davis,California,38.5449065,-121.74051670000001,32.0,35.0,43.0,48.0,82.0,82.0,53.0,66.0,59.0,53.0,50.0,33.0,26.0,39.0,46.0,72.0,67.0,79.0,70.0,84.0,55,45,34,33,30,33,44,59,66,57,74,57,55,68,28,42.0,47.3,8.2,87.59,51.3,50.8,5.4,68.24,25.6,53.9,3.5,72.15,17.6,59.2,2.0,64.79,14.2,65.1,0.5,59.87,18.1,73.8,0.2,53.58,5.1,75.8,0.0,52.12,4.5,73.9,0.0,57.4,2.9,71.0,0.0,52.91,6.6,63.0,0.4,48.04,8.0,53.5,1.3,66.49,20.4,48.1,2.5,77.49,33.0
South San Francisco,California,37.654656,-122.40774979999999,39.0,22.0,39.0,35.0,54.0,51.0,44.0,50.0,31.0,34.0,44.0,46.0,23.0,32.0,39.0,31.0,48.0,50.0,41.0,49.0,45,50,45,33,19,30,27,42,39,38,34,37,29,41,28,35.0,52.5,5.9,75.69,63.9,52.6,5.0,69.56,53.6,54.6,3.6,72.35,56.2,57.0,1.5,69.5,52.3,57.9,0.7,70.45,59.4,62.3,0.0,67.45,43.2,62.6,0.0,71.5,42.7,63.5,0.0,74.05,51.1,64.5,0.1,69.65,42.8,61.5,0.1,62.5,32.4,56.2,2.5,71.06,53.4,52.9,1.8,72.13,51.5
Camarillo,California,34.216393700000005,-119.0376023,80.0,77.0,99.0,96.0,126.0,132.0,113.0,114.0,81.0,85.0,94.0,83.0,68.0,81.0,95.0,97.0,121.0,109.0,116.0,96.0,104,104,64,63,56,59,98,106,101,106,131,125,117,122,113,92.0,57.5,5.0,63.32,28.1,54.7,3.6,66.36,35.6,58.4,2.5,66.1,31.5,61.1,0.1,64.91,29.1,60.5,0.4,72.43,43.9,64.7,0.0,74.41,49.9,69.8,0.0,72.21,29.6,70.4,0.0,71.75,26.2,69.3,0.0,69.47,27.1,67.3,0.0,55.68,14.3,61.9,1.2,59.33,20.3,57.4,2.1,54.19,14.4
North Little Rock,Arkansas,34.769535999999995,-92.2670941,72.0,57.0,91.0,82.0,107.0,129.0,147.0,98.0,101.0,80.0,96.0,84.0,86.0,91.0,86.0,99.0,111.0,93.0,106.0,134.0,95,116,96,94,65,82,94,103,137,86,104,94,101,118,79,80.0,41.4,2.7,72.98,58.9,48.8,8.3,76.85,72.4,54.0,3.9,65.75,59.6,61.2,9.3,70.64,60.8,72.0,6.6,75.18,60.9,77.9,4.0,75.29,62.8,80.9,3.9,77.2,54.9,78.9,5.9,80.41,62.1,76.4,3.4,77.02,46.8,62.8,5.8,75.28,54.1,49.4,3.3,73.76,59.1,44.4,6.8,72.12,63.0
Schenectady,New York,42.8142432,-73.93956870000001,147.0,129.0,173.0,185.0,207.0,258.0,231.0,243.0,206.0,196.0,195.0,219.0,172.0,134.0,190.0,175.0,191.0,225.0,218.0,234.0,208,224,177,187,146,122,145,139,184,186,219,226,241,191,170,157.0,26.2,3.2,64.96,73.6,31.6,2.9,64.15,73.6,33.8,2.8,57.28,66.9,48.1,3.7,60.05,75.0,59.9,3.6,64.69,77.3,68.0,4.5,64.16,66.1,74.4,4.3,66.57,59.7,71.4,4.0,70.7,61.7,65.2,3.6,72.45,61.2,54.2,4.6,71.7,70.7,37.7,3.4,66.41,75.1,29.3,3.2,68.97,72.4
Gaithersburg,Maryland,39.143968900000004,-77.2016062,103.0,127.0,100.0,127.0,126.0,151.0,99.0,134.0,158.0,115.0,109.0,105.0,157.0,68.0,99.0,137.0,144.0,151.0,126.0,138.0,109,117,82,89,84,75,97,96,142,143,98,120,83,114,115,133.0,34.4,3.1,66.9,56.3,41.1,3.3,65.26,48.6,41.5,3.7,58.72,46.8,56.6,3.4,61.46,50.2,65.8,6.6,74.03,52.4,72.4,2.4,71.0,37.9,76.5,10.4,75.15,30.3,74.0,4.7,78.99,35.5,69.4,5.8,80.29,40.6,59.3,3.9,76.14,40.2,43.1,3.9,68.75,39.0,36.9,4.2,72.39,44.8
Harlingen,Texas,26.190630600000002,-97.69610259999999,47.0,41.0,63.0,59.0,69.0,65.0,57.0,55.0,46.0,63.0,44.0,50.0,43.0,43.0,67.0,78.0,69.0,73.0,62.0,61.0,52,76,43,38,54,64,74,76,77,52,35,44,26,48,32,35.0,59.9,1.6,74.97,47.4,68.1,0.4,81.62,55.6,70.5,2.0,77.06,60.5,74.3,0.8,73.7,44.6,80.8,1.3,75.74,45.8,84.4,5.8,77.28,31.5,84.9,1.3,75.05,17.4,86.1,0.5,72.01,17.4,82.1,6.2,79.96,25.1,74.7,3.4,77.12,37.4,66.4,1.4,79.15,44.0,61.1,0.9,77.51,42.8
Woodbury,Minnesota,44.923855200000006,-92.9593797,,,,,,,,176.0,122.0,119.0,106.0,100.0,61.0,72.0,86.0,102.0,148.0,176.0,186.0,156.0,123,132,133,109,69,68,73,95,138,156,168,191,141,151,105,106.0,17.3,0.4,73.77,47.7,20.3,1.0,70.55,38.7,31.6,1.1,64.59,43.6,44.4,2.9,63.4,43.1,59.9,5.7,62.6,43.5,70.1,4.2,65.12,38.4,73.8,4.6,69.25,27.0,69.6,6.3,73.09,38.1,65.0,4.6,74.57,40.9,46.9,4.4,72.03,53.1,31.0,0.9,72.22,56.4,22.8,1.1,76.52,55.3
Eagan,Minnesota,44.804132200000005,-93.1668858,59.0,51.0,77.0,63.0,95.0,138.0,111.0,87.0,113.0,92.0,83.0,68.0,61.0,54.0,81.0,81.0,110.0,150.0,136.0,111.0,95,122,78,68,56,45,69,65,118,136,147,129,115,133,82,98.0,17.4,0.8,73.61,56.2,20.4,1.4,70.84,49.2,31.7,1.3,64.09,52.1,44.7,3.4,62.13,53.4,60.4,6.0,60.83,54.9,70.8,4.1,63.02,50.3,74.5,5.1,67.08,40.8,70.3,6.1,70.82,48.8,65.7,4.7,73.22,51.0,47.3,4.6,71.23,61.5,31.2,1.2,72.63,65.2,22.9,1.3,77.33,55.5
Yuba City,California,39.1404477,-121.6169108,60.0,53.0,81.0,65.0,98.0,99.0,77.0,91.0,97.0,79.0,80.0,82.0,79.0,81.0,101.0,80.0,105.0,101.0,70.0,93.0,66,79,67,84,84,86,73,62,85,83,95,89,65,89,69,84.0,48.1,6.4,83.32,44.1,49.2,6.6,72.35,39.8,54.2,4.1,71.7,37.1,60.0,2.0,66.69,28.1,66.2,1.3,60.21,15.3,76.0,0.1,49.45,4.1,80.3,0.0,44.82,2.5,77.6,0.0,51.06,8.1,71.9,0.1,51.41,6.4,62.7,0.2,48.77,5.1,53.2,2.9,69.19,30.4,47.3,2.6,78.64,27.2
Maple Grove,Minnesota,45.072464200000006,-93.4557877,98.0,68.0,109.0,115.0,196.0,222.0,198.0,215.0,149.0,147.0,119.0,123.0,105.0,84.0,105.0,141.0,166.0,189.0,173.0,156.0,127,154,115,93,73,82,85,81,160,198,201,208,161,160,116,125.0,16.7,0.2,69.77,48.0,19.6,0.9,67.6,38.6,30.9,1.1,63.2,45.0,43.8,2.4,61.62,45.0,59.7,4.6,60.34,43.5,70.1,3.4,63.31,39.2,73.7,4.5,67.66,27.8,69.4,5.1,70.25,38.0,65.0,3.8,71.39,41.6,46.6,3.9,69.1,53.7,30.6,0.8,70.02,59.5,22.2,0.8,74.26,56.8
Youngstown,Ohio,41.0997803,-80.6495194,61.0,45.0,63.0,70.0,61.0,51.0,81.0,83.0,63.0,74.0,71.0,79.0,58.0,51.0,86.0,73.0,77.0,77.0,78.0,86.0,79,72,62,54,68,74,78,97,75,61,84,84,68,94,89,97.0,27.7,3.6,77.18,66.3,35.7,3.8,73.02,72.6,34.7,4.0,68.09,54.1,48.5,4.5,66.29,52.7,62.3,4.3,71.56,68.3,67.9,7.4,74.61,65.1,72.9,3.1,75.07,53.9,70.1,3.3,77.48,56.8,66.2,4.3,79.17,54.0,54.8,3.6,77.26,61.6,38.0,3.7,73.36,72.0,32.8,3.0,76.12,76.0
Skokie,Illinois,42.0324025,-87.7416246,86.0,62.0,80.0,90.0,114.0,141.0,126.0,116.0,91.0,91.0,86.0,77.0,73.0,49.0,95.0,82.0,126.0,120.0,110.0,92.0,76,86,79,59,50,50,69,61,102,98,101,102,83,80,67,64.0,25.8,2.0,72.02,42.9,29.6,2.4,73.02,26.2,35.2,2.4,65.25,26.6,45.8,4.9,66.75,27.2,59.0,6.3,68.21,41.6,67.5,5.4,70.86,33.8,75.5,4.7,66.43,27.9,73.3,3.9,66.7,30.7,69.5,3.6,67.38,42.9,54.5,7.1,69.27,61.0,37.6,2.0,69.4,68.4,31.6,1.6,70.21,63.0
Kissimmee,Florida,28.291955699999995,-81.40757099999999,243.0,259.0,326.0,297.0,386.0,388.0,332.0,379.0,206.0,377.0,288.0,297.0,301.0,325.0,475.0,465.0,583.0,569.0,555.0,505.0,464,533,422,401,323,243,372,391,381,368,407,369,342,365,317,392.0,60.8,2.5,73.05,40.0,69.3,1.5,75.83,40.2,67.0,0.6,65.05,30.9,73.2,1.3,68.41,30.6,77.6,5.8,73.01,37.6,80.1,12.0,80.95,39.3,81.3,8.7,80.79,37.4,81.7,7.7,81.29,34.8,81.4,6.7,77.18,32.4,77.4,3.4,76.92,36.0,69.0,0.9,77.49,35.3,64.6,3.3,79.13,41.3
Johnson City,Tennessee,36.3134397,-82.35347270000001,95.0,117.0,162.0,177.0,176.0,151.0,159.0,169.0,127.0,158.0,141.0,117.0,96.0,84.0,124.0,132.0,166.0,166.0,180.0,239.0,145,154,151,113,135,103,131,133,179,197,211,185,161,160,117,132.0,37.6,3.0,74.07,71.0,46.4,6.7,74.06,70.1,45.9,4.4,62.99,63.1,57.3,4.8,66.72,61.5,67.5,6.9,74.76,62.2,71.5,5.1,76.11,63.5,75.2,4.1,76.07,58.8,72.9,5.3,78.99,60.0,70.6,2.5,77.62,50.4,59.2,5.4,76.74,54.0,44.0,3.6,76.32,58.4,40.5,3.9,76.03,67.6
Victoria,Texas,28.805267399999998,-97.00359820000001,76.0,101.0,83.0,108.0,127.0,109.0,106.0,85.0,81.0,115.0,78.0,100.0,95.0,82.0,91.0,125.0,132.0,125.0,145.0,96.0,110,136,95,96,86,99,105,98,110,93,108,97,81,89,72,82.0,54.6,2.2,70.89,46.1,62.1,3.0,79.63,65.8,66.0,2.5,73.62,56.6,70.1,2.4,72.58,46.3,77.8,2.1,74.45,50.6,82.5,5.7,75.21,41.8,83.9,1.2,72.69,26.3,84.4,3.7,72.1,29.5,80.3,4.6,77.82,33.0,71.3,3.9,75.71,37.4,61.6,1.3,76.85,46.2,56.1,2.7,73.33,45.0
San Clemente,California,33.4273521,-117.61260039999999,63.0,72.0,113.0,93.0,123.0,124.0,97.0,118.0,115.0,71.0,73.0,77.0,51.0,54.0,104.0,103.0,109.0,99.0,113.0,98.0,71,78,75,71,58,69,94,99,131,122,108,90,88,104,67,79.0,55.8,4.3,72.82,36.4,54.4,3.6,76.93,47.6,57.4,1.3,74.36,23.1,59.9,0.2,74.76,24.8,61.2,1.2,76.74,50.5,65.4,0.0,79.13,64.9,70.0,0.0,79.24,46.8,69.7,0.0,80.62,50.2,69.8,0.0,74.5,43.3,66.0,0.3,63.66,28.0,59.0,1.4,69.76,28.6,55.4,2.8,60.94,25.0
Bayonne,New Jersey,40.6687141,-74.11430909999999,67.0,52.0,63.0,67.0,63.0,49.0,65.0,71.0,70.0,58.0,61.0,58.0,53.0,60.0,60.0,58.0,70.0,67.0,67.0,70.0,44,64,64,71,37,49,60,42,59,51,55,64,77,52,57,56.0,34.1,3.8,61.46,35.7,37.9,3.9,64.77,22.0,40.1,4.5,54.14,21.1,52.6,4.3,62.55,26.3,63.2,6.6,65.96,39.4,72.0,4.8,62.18,37.9,78.6,6.9,64.61,30.5,76.0,6.1,67.06,31.7,70.7,3.1,68.42,33.7,60.0,5.2,70.06,32.4,44.4,3.5,62.98,34.2,38.2,5.1,64.05,33.8
Laguna Niguel,California,33.5236744,-117.71494380000001,91.0,88.0,128.0,112.0,148.0,143.0,130.0,145.0,111.0,85.0,88.0,89.0,64.0,79.0,123.0,105.0,108.0,114.0,92.0,116.0,78,80,78,73,80,73,93,118,120,99,112,95,98,90,81,109.0,58.0,3.9,66.95,47.7,55.8,3.8,68.91,50.6,59.4,0.8,66.94,38.3,61.9,0.1,68.2,36.2,62.8,0.4,71.67,53.8,66.8,0.0,73.94,56.6,71.9,0.0,72.91,43.7,72.5,0.0,72.24,44.2,71.3,0.0,70.59,42.1,68.4,0.4,59.33,31.2,61.9,1.5,61.06,37.7,57.4,2.8,56.64,34.6
East Orange,New Jersey,40.767323,-74.20486770000001,66.0,43.0,47.0,56.0,57.0,54.0,62.0,83.0,70.0,37.0,35.0,68.0,61.0,60.0,73.0,85.0,80.0,76.0,70.0,103.0,75,70,93,85,72,61,80,88,80,63,95,79,84,78,87,83.0,33.3,3.3,62.11,55.8,38.4,3.4,63.29,51.5,39.7,4.1,54.79,48.6,53.2,4.3,60.97,55.5,63.2,6.1,66.46,60.6,72.4,3.9,62.02,52.0,78.3,6.0,65.73,48.2,75.5,5.9,69.19,48.3,70.2,2.5,70.29,50.6,60.0,4.8,70.83,52.4,44.0,3.1,63.23,51.0,36.8,4.3,65.45,55.3
Shawnee,Kansas,39.0228485,-94.7151865,56.0,67.0,91.0,108.0,137.0,150.0,161.0,135.0,108.0,126.0,122.0,108.0,64.0,67.0,92.0,102.0,152.0,144.0,137.0,112.0,86,126,98,83,60,70,80,84,136,151,132,115,107,98,81,98.0,31.1,0.8,70.85,44.6,36.3,0.7,66.89,41.7,45.2,2.4,62.41,50.7,55.2,3.5,61.58,41.9,68.2,5.9,68.33,36.3,77.0,5.0,65.71,22.6,80.1,4.8,66.93,18.5,76.4,7.4,72.04,30.3,73.6,3.2,71.15,25.9,56.0,5.2,69.76,38.8,41.8,0.6,66.15,35.0,36.0,1.3,68.18,38.8
Homestead,Florida,25.468722399999997,-80.4775569,,,,,,,,,,,,,,,,,,314.0,278.0,238.0,235,231,220,204,216,209,235,266,283,238,318,276,254,263,193,263.0,67.8,2.9,78.71,38.6,73.0,1.5,81.76,34.9,71.1,2.3,70.32,30.9,76.2,4.6,72.78,35.5,79.5,6.6,76.1,41.4,81.8,14.8,81.07,38.2,83.2,8.5,78.39,30.6,82.9,11.5,80.03,31.5,82.5,11.8,80.55,33.1,80.1,8.6,80.09,34.1,74.5,2.8,78.47,36.6,70.2,3.2,78.03,37.3
Rockville,Maryland,39.0839973,-77.1527578,60.0,81.0,59.0,74.0,85.0,97.0,73.0,95.0,111.0,80.0,77.0,57.0,59.0,46.0,56.0,64.0,74.0,100.0,85.0,88.0,82,62,61,57,67,48,50,63,77,88,70,110,67,69,70,88.0,35.4,3.5,65.98,54.0,41.4,3.2,65.5,39.4,42.7,4.9,57.42,39.2,57.3,4.3,61.38,42.3,66.6,7.0,72.25,48.5,73.0,2.7,69.74,37.2,77.2,10.4,72.98,31.1,74.8,6.0,76.77,36.2,70.2,11.2,78.57,41.5,59.7,3.6,74.21,40.1,43.6,4.3,67.65,39.4,37.5,3.9,70.56,45.4
Delray Beach,Florida,26.4614625,-80.07282009999999,295.0,324.0,495.0,408.0,457.0,473.0,392.0,423.0,271.0,370.0,337.0,346.0,331.0,354.0,493.0,508.0,505.0,484.0,451.0,396.0,313,376,349,331,321,329,412,437,466,436,436,383,346,375,351,422.0,68.3,2.1,71.32,36.8,73.6,1.8,73.66,27.2,71.4,1.9,64.52,25.7,76.4,2.7,68.45,27.8,79.2,6.3,73.86,38.2,81.8,8.9,78.32,33.9,83.6,4.8,74.98,28.7,83.6,5.1,76.11,34.5,83.2,3.3,75.33,32.1,80.9,5.1,74.19,33.4,74.8,2.7,75.84,34.7,71.3,3.4,73.65,33.7
Janesville,Wisconsin,42.6827885,-89.01872220000001,98.0,49.0,85.0,126.0,146.0,159.0,138.0,122.0,121.0,122.0,131.0,91.0,91.0,62.0,80.0,105.0,149.0,147.0,135.0,133.0,109,125,99,82,76,62,80,95,107,142,152,122,138,121,108,98.0,22.6,1.9,78.88,62.1,28.2,3.1,75.68,61.3,35.6,1.8,65.1,56.7,47.5,3.8,64.03,60.2,60.8,5.8,69.21,64.7,70.3,7.6,68.58,57.5,74.3,5.4,71.05,47.5,70.6,6.1,75.12,56.0,66.8,6.5,75.22,48.7,51.4,5.2,74.07,55.7,34.6,1.7,75.92,63.2,29.2,1.6,77.24,63.1
Conway,Arkansas,35.0886963,-92.44210109999999,78.0,93.0,120.0,112.0,152.0,135.0,131.0,135.0,116.0,121.0,116.0,100.0,87.0,76.0,115.0,112.0,150.0,128.0,131.0,151.0,93,132,86,80,79,82,108,108,152,110,108,105,132,127,80,97.0,41.2,3.2,73.65,50.4,48.7,9.4,77.14,61.6,53.8,3.9,66.65,47.3,61.1,9.5,71.69,45.5,71.4,7.4,77.44,47.3,77.6,4.2,76.57,43.3,80.6,4.2,78.16,35.5,79.0,6.0,81.01,43.8,76.1,3.1,78.75,34.3,62.1,5.3,77.33,46.4,47.4,4.0,75.43,50.4,43.5,6.7,74.14,55.6
Pico Rivera,California,33.9830688,-118.09673500000001,36.0,37.0,38.0,24.0,41.0,51.0,35.0,41.0,43.0,33.0,34.0,28.0,32.0,22.0,33.0,26.0,40.0,42.0,29.0,29.0,29,44,34,46,16,29,28,30,28,25,33,36,27,36,28,29.0,57.8,4.8,63.36,32.1,56.3,3.0,64.3,39.5,61.1,1.4,61.5,34.9,64.8,0.1,58.93,29.1,64.7,0.6,65.51,51.0,69.6,0.0,66.97,44.6,75.8,0.0,63.46,20.9,75.8,0.0,64.51,21.8,73.7,0.0,63.17,28.3,70.4,0.2,53.89,21.1,63.8,1.2,57.68,23.8,57.9,1.7,54.27,17.3
Lorain,Ohio,41.452819,-82.18237459999999,78.0,50.0,88.0,93.0,92.0,109.0,96.0,105.0,85.0,65.0,90.0,86.0,49.0,71.0,99.0,87.0,127.0,96.0,84.0,94.0,82,91,112,65,70,76,80,119,99,90,125,81,100,106,149,81.0,27.9,3.3,70.99,65.3,34.2,2.6,69.06,59.5,34.9,3.0,64.16,51.4,48.8,3.6,62.67,50.0,61.2,4.9,65.64,47.5,69.1,5.4,64.12,41.2,74.0,4.0,66.36,32.0,70.8,4.4,69.4,33.5,67.2,2.4,69.53,37.4,55.7,3.6,66.43,48.3,38.7,4.0,66.24,65.7,32.9,1.9,69.35,60.2
Montebello,California,34.0165053,-118.11375349999999,27.0,22.0,23.0,21.0,26.0,34.0,23.0,21.0,21.0,32.0,26.0,32.0,20.0,27.0,31.0,30.0,30.0,30.0,30.0,29.0,17,28,24,20,17,20,22,22,31,38,28,31,25,18,29,25.0,57.8,4.9,63.09,31.2,56.3,3.0,63.96,39.0,61.2,1.5,61.33,34.2,64.8,0.1,58.8,28.2,64.6,0.6,65.5,50.2,69.6,0.0,66.89,43.9,75.8,0.0,63.56,19.4,75.8,0.0,64.75,21.1,73.8,0.0,63.24,27.5,70.4,0.2,53.96,20.5,63.9,1.2,57.58,22.8,58.1,1.8,54.05,16.2
Lodi,California,38.1341477,-121.27221940000001,57.0,53.0,73.0,69.0,88.0,98.0,87.0,95.0,88.0,75.0,69.0,83.0,57.0,66.0,95.0,93.0,112.0,111.0,91.0,78.0,64,78,44,50,55,50,66,76,89,85,89,76,88,113,76,,49.1,4.5,85.24,45.4,50.2,4.3,72.25,34.4,55.0,2.7,72.51,32.0,60.6,1.5,65.71,22.8,65.5,1.1,58.75,15.5,74.7,0.0,47.96,3.8,78.5,0.0,44.09,1.9,76.1,0.0,50.13,3.7,72.0,0.1,50.46,4.9,63.4,0.4,49.16,5.0,54.4,1.5,67.06,27.1,48.4,2.1,76.65,26.1
New Braunfels,Texas,29.7030024,-98.1244531,106.0,105.0,152.0,173.0,192.0,210.0,182.0,162.0,164.0,141.0,131.0,151.0,114.0,112.0,140.0,153.0,240.0,210.0,175.0,207.0,138,188,140,142,112,144,149,193,226,204,241,188,152,158,125,140.0,52.1,2.1,64.46,44.0,58.8,1.6,72.77,60.1,64.2,3.0,66.44,54.1,68.5,3.0,67.37,44.4,76.5,2.6,71.57,51.6,82.2,2.1,70.35,44.4,84.9,1.0,63.88,29.9,85.2,4.0,64.07,33.8,80.1,4.0,71.26,44.6,69.6,3.0,69.15,44.4,59.5,1.3,70.55,46.7,52.9,2.7,68.62,40.7
Marysville,Washington,48.0517637,-122.1770818,90.0,101.0,133.0,119.0,146.0,161.0,136.0,163.0,134.0,158.0,135.0,106.0,89.0,79.0,104.0,137.0,154.0,135.0,148.0,136.0,131,113,106,88,80,73,98,117,109,139,139,142,141,135,112,92.0,40.6,3.0,80.3,62.5,37.3,4.7,81.58,72.3,44.1,3.6,76.57,59.8,49.3,4.0,75.35,68.4,56.1,1.8,74.87,49.0,59.2,1.1,72.03,53.2,64.1,0.2,68.71,31.0,64.7,0.3,71.66,35.8,59.4,2.4,76.78,52.0,49.2,2.9,81.86,50.8,44.5,5.0,83.97,61.2,40.1,4.4,85.78,58.1
Tamarac,Florida,26.2128609,-80.2497707,161.0,184.0,234.0,207.0,224.0,200.0,215.0,233.0,149.0,209.0,178.0,215.0,149.0,158.0,233.0,244.0,197.0,245.0,232.0,194.0,188,215,198,169,146,139,197,193,250,120,209,198,195,189,149,213.0,68.1,3.0,73.71,48.2,74.3,1.8,75.2,42.4,72.1,1.5,64.97,38.9,77.4,3.2,66.58,41.3,80.5,6.9,70.91,44.9,82.2,8.5,76.78,40.5,84.0,5.0,73.83,36.4,83.5,8.0,77.24,38.5,83.2,7.1,75.91,41.8,80.6,6.2,76.69,46.6,74.7,4.9,77.52,45.3,70.8,4.3,76.91,43.6
Madera,California,36.961335600000005,-120.0607176,67.0,59.0,98.0,77.0,69.0,106.0,81.0,95.0,71.0,68.0,78.0,97.0,61.0,76.0,98.0,84.0,105.0,98.0,84.0,74.0,78,77,79,56,86,89,103,90,123,133,112,78,89,98,76,96.0,50.4,2.7,78.37,38.0,51.5,2.3,69.28,31.7,56.3,2.5,70.52,27.0,62.7,0.5,61.5,15.9,68.1,0.6,54.23,15.0,77.0,0.0,47.46,2.5,81.8,0.0,43.63,6.5,80.3,0.0,46.87,0.9,74.3,0.1,48.32,2.9,63.0,0.0,53.11,3.8,55.3,0.9,64.91,18.2,48.6,0.9,74.39,25.5
Conroe,Texas,30.311876899999998,-95.4560512,122.0,158.0,199.0,189.0,230.0,279.0,248.0,234.0,187.0,183.0,188.0,184.0,165.0,168.0,211.0,203.0,248.0,271.0,223.0,241.0,186,216,178,171,140,166,237,237,223,233,240,234,162,165,175,176.0,50.8,4.6,75.9,47.1,59.8,4.0,82.11,70.6,63.2,2.9,74.34,51.3,66.7,3.0,76.93,43.4,75.6,4.5,76.84,44.9,80.7,4.9,77.74,39.3,82.5,4.6,76.16,28.1,82.2,9.7,78.23,31.1,78.2,9.2,81.57,32.3,68.3,4.8,81.51,36.8,58.5,1.7,81.42,45.4,52.1,4.9,80.4,44.4
Santa Cruz,California,36.9741171,-122.0307963,58.0,54.0,67.0,79.0,101.0,90.0,74.0,103.0,91.0,107.0,94.0,81.0,59.0,52.0,76.0,73.0,84.0,96.0,88.0,99.0,61,88,78,48,44,52,62,89,75,87,79,93,86,75,60,66.0,51.8,7.1,80.76,29.2,50.7,5.9,72.56,18.0,53.2,5.2,80.11,15.9,54.7,1.8,83.18,19.6,57.2,0.7,79.14,40.3,60.1,0.1,79.46,23.4,61.4,0.0,81.12,29.4,62.6,0.0,80.89,28.4,62.8,0.1,76.4,16.2,59.4,0.1,64.87,14.4,54.3,2.6,75.59,18.5,51.7,3.5,77.08,16.4
Eden Prairie,Minnesota,44.8546856,-93.470786,86.0,53.0,79.0,82.0,129.0,148.0,151.0,147.0,125.0,126.0,110.0,80.0,66.0,60.0,82.0,102.0,135.0,152.0,140.0,116.0,101,130,95,91,70,60,76,112,121,139,136,144,108,129,87,95.0,17.0,0.2,72.4,46.8,19.8,0.8,69.37,37.1,31.6,1.0,63.82,44.3,44.9,2.4,60.93,43.9,60.6,5.3,60.1,43.2,70.8,4.3,63.39,38.8,74.3,5.6,68.16,27.3,69.9,5.2,71.7,37.5,65.5,3.8,71.99,40.5,47.2,3.8,69.29,52.6,31.2,0.7,70.53,59.1,22.6,0.7,74.92,53.4
Cheyenne,Wyoming,41.1399814,-104.8202462,89.0,114.0,132.0,148.0,193.0,188.0,167.0,188.0,154.0,175.0,149.0,165.0,110.0,121.0,188.0,169.0,145.0,216.0,188.0,157.0,162,159,141,127,115,128,136,138,174,202,227,204,162,159,135,152.0,29.8,0.5,55.5,21.6,28.5,0.5,59.33,22.1,37.0,1.0,56.97,24.8,43.5,1.8,57.29,30.8,50.8,4.2,65.2,34.7,63.3,2.4,52.59,19.5,70.2,1.8,52.77,18.6,66.8,1.8,52.36,20.1,61.2,0.6,49.17,21.3,42.8,0.8,54.13,21.7,36.3,2.6,58.48,22.8,30.2,0.5,54.52,19.8
Daytona Beach,Florida,29.2108147,-81.02283309999999,112.0,121.0,158.0,135.0,161.0,167.0,155.0,157.0,105.0,116.0,118.0,149.0,125.0,141.0,132.0,142.0,214.0,163.0,133.0,147.0,124,167,129,153,115,102,124,181,174,150,155,145,141,159,128,158.0,58.7,3.8,79.38,54.5,66.4,1.1,83.58,51.7,64.3,1.2,72.03,46.3,70.9,3.0,75.59,48.8,75.9,5.6,79.18,54.2,79.3,8.4,86.33,64.2,80.7,6.9,85.78,59.6,81.3,7.0,86.04,59.0,81.1,5.2,80.12,53.2,76.7,9.2,81.16,55.4,67.2,1.8,83.87,55.8,62.8,3.3,84.18,55.8
Alpharetta,Georgia,34.07537620000001,-84.2940899,93.0,94.0,125.0,132.0,176.0,199.0,167.0,154.0,127.0,104.0,114.0,94.0,68.0,94.0,130.0,159.0,183.0,177.0,163.0,142.0,116,117,109,97,79,85,148,139,151,177,168,148,143,112,111,123.0,43.5,4.6,66.57,47.6,53.1,4.6,71.01,60.3,53.1,3.9,58.82,47.2,62.5,6.6,64.0,42.8,72.3,5.8,68.8,42.8,75.8,7.5,74.22,45.6,79.0,6.0,73.46,41.2,77.9,5.0,73.63,41.5,75.9,2.2,69.98,28.5,64.3,4.4,73.36,38.6,50.3,4.5,73.85,43.2,46.1,6.1,74.22,53.5
Hamilton,Ohio,39.3995008,-84.5613355,120.0,130.0,193.0,171.0,195.0,211.0,198.0,231.0,212.0,189.0,192.0,173.0,125.0,130.0,202.0,210.0,164.0,264.0,240.0,268.0,183,226,210,199,185,126,179,223,270,243,285,198,208,265,206,179.0,32.0,2.8,75.72,63.8,40.2,4.9,73.44,56.5,41.3,5.1,67.44,51.6,54.7,4.7,66.57,43.1,67.0,5.4,73.37,40.0,72.3,4.4,76.38,33.8,75.9,3.9,76.43,28.4,73.1,4.0,77.91,29.9,69.5,3.4,78.37,29.5,56.6,3.4,77.26,39.8,40.4,4.6,75.73,52.3,35.1,3.4,76.15,50.3
Waltham,Massachusetts,42.376485200000005,-71.2356113,37.0,20.0,36.0,46.0,66.0,76.0,72.0,55.0,39.0,61.0,49.0,35.0,32.0,28.0,38.0,49.0,52.0,57.0,60.0,75.0,35,47,47,36,25,34,39,53,58,68,52,73,36,34,47,49.0,30.0,3.3,61.33,46.4,34.5,2.7,62.21,40.0,35.9,2.7,56.02,39.3,48.6,5.9,62.71,45.8,58.1,3.2,67.43,49.1,67.5,4.9,66.38,43.4,74.9,5.0,65.46,35.3,72.6,3.1,67.65,37.0,66.3,4.6,72.27,36.3,56.4,6.0,72.33,36.2,41.5,5.1,65.45,38.7,33.3,4.2,62.03,36.5
Coon Rapids,Minnesota,45.1732394,-93.30300629999999,76.0,44.0,63.0,81.0,123.0,172.0,124.0,133.0,98.0,107.0,102.0,78.0,85.0,64.0,82.0,82.0,108.0,160.0,146.0,139.0,116,116,95,84,69,52,98,77,108,123,138,153,116,135,106,96.0,17.0,0.4,71.38,50.8,20.0,1.0,68.83,44.7,31.2,1.1,63.95,49.9,44.0,2.6,62.33,49.9,59.9,4.6,60.67,48.4,70.3,3.4,63.64,44.6,73.9,4.2,68.04,35.5,69.6,5.1,70.95,43.1,65.2,3.9,72.33,46.8,46.9,3.9,69.99,56.7,30.8,0.9,71.26,59.9,22.6,0.9,75.93,55.7
Haverhill,Massachusetts,42.7762015,-71.0772796,46.0,39.0,66.0,49.0,61.0,102.0,81.0,90.0,85.0,73.0,85.0,80.0,42.0,35.0,52.0,70.0,79.0,97.0,102.0,103.0,65,80,71,74,43,51,53,77,81,78,83,89,64,84,60,67.0,29.6,2.2,62.19,46.9,34.0,2.1,62.7,44.0,34.8,2.5,58.22,46.1,48.6,4.1,63.11,54.1,58.9,2.7,66.5,54.0,68.3,5.2,65.09,42.4,75.2,3.4,66.07,30.9,73.0,3.5,69.06,33.5,66.2,3.9,72.06,38.1,55.7,4.7,72.2,49.2,40.6,3.9,64.32,46.8,32.1,3.1,64.31,42.7
Taylor,Michigan,42.240871999999996,-83.2696509,104.0,104.0,90.0,73.0,95.0,84.0,90.0,107.0,97.0,104.0,116.0,76.0,127.0,90.0,67.0,81.0,93.0,122.0,108.0,112.0,109,91,97,79,99,79,80,76,90,80,96,93,102,139,80,62.0,26.7,2.2,74.02,77.1,32.1,2.7,71.23,79.8,35.3,3.1,62.65,71.0,48.3,4.1,61.99,76.4,61.1,5.3,65.61,77.0,70.3,2.9,63.56,73.5,75.5,2.3,65.11,67.1,72.9,3.7,67.88,69.5,67.6,3.6,73.1,69.7,54.4,3.7,72.13,72.0,37.9,3.8,70.51,84.2,32.1,2.1,72.63,80.7
Utica,New York,43.100903,-75.232664,47.0,40.0,39.0,41.0,53.0,54.0,58.0,64.0,44.0,59.0,54.0,47.0,50.0,30.0,31.0,40.0,29.0,50.0,58.0,63.0,51,62,48,29,32,22,30,27,48,46,63,62,52,52,53,31.0,22.8,3.4,78.51,68.1,28.7,2.8,76.97,68.1,30.0,2.8,69.46,63.1,44.7,4.5,71.16,62.8,57.5,5.5,73.56,61.2,65.0,3.6,74.01,47.2,71.8,5.2,74.91,41.2,68.6,3.7,78.34,44.0,63.2,3.3,82.01,43.3,52.2,6.9,81.5,60.3,35.5,4.5,78.47,73.1,26.9,3.6,82.71,66.8
Ames,Iowa,42.03078120000001,-93.63191309999999,,,,,,,,87.0,66.0,54.0,56.0,57.0,44.0,27.0,47.0,48.0,65.0,91.0,98.0,115.0,39,46,55,49,28,32,44,65,75,102,119,71,37,39,58,64.0,21.3,1.1,81.18,51.1,24.5,1.1,78.81,44.2,34.9,2.4,74.48,52.2,48.1,2.9,68.66,47.5,62.0,7.1,72.54,44.1,72.4,6.9,70.92,30.2,75.0,4.4,76.78,19.4,70.1,4.8,80.49,31.4,67.1,5.4,79.72,34.0,49.4,5.3,75.35,45.4,33.9,1.2,76.39,46.4,27.5,1.0,77.75,42.4
La Habra,California,33.931859100000004,-117.94613700000001,45.0,48.0,74.0,54.0,53.0,60.0,67.0,71.0,63.0,47.0,47.0,50.0,32.0,48.0,56.0,49.0,59.0,53.0,73.0,60.0,43,49,50,44,41,49,36,61,47,48,51,62,50,54,51,43.0,57.7,5.0,65.43,36.2,56.1,3.0,66.53,41.6,60.7,1.2,63.35,38.0,64.5,0.1,60.7,32.9,64.5,0.5,66.37,53.4,69.2,0.0,68.23,47.5,75.4,0.0,64.26,26.9,75.5,0.0,64.57,25.3,73.3,0.0,63.98,31.9,70.0,6.4,55.3,24.0,63.5,1.2,59.35,28.2,57.4,2.0,57.66,25.1
