City,State,Latitude,Longitude,2017-01,2017-02,2017-03,2017-04,2017-05,2017-06,2017-07,2017-08,2017-09,2017-10,2017-11,2017-12,2018-01,2018-02,2018-03,2018-04,2018-05,2018-06,2018-07,2018-08,2018-09,2018-10,2018-11,2018-12,2019-01,2019-02,2019-03,2019-04,2019-05,2019-06,2019-07,2019-08,2019-09,2019-10,2019-11,2019-12,Jan_temp,Jan_precip,Jan_humid,Jan_cloud,Feb_temp,Feb_precip,Feb_humid,Feb_cloud,Mar_temp,Mar_precip,Mar_humid,Mar_cloud,Apr_temp,Apr_precip,Apr_humid,Apr_cloud,May_temp,May_precip,May_humid,May_cloud,Jun_temp,Jun_precip,Jun_humid,Jun_cloud,Jul_temp,Jul_precip,Jul_humid,Jul_cloud,Aug_temp,Aug_precip,Aug_humid,Aug_cloud,Sep_temp,Sep_precip,Sep_humid,Sep_cloud,Oct_temp,Oct_precip,Oct_humid,Oct_cloud,Nov_temp,Nov_precip,Nov_humid,Nov_cloud,Dec_temp,Dec_precip,Dec_humid,Dec_cloud
Maplewood,Minnesota,44.953021500000006,-92.9952153,44.0,41.0,46.0,59.0,65.0,71.0,70.0,73.0,66.0,86.0,39.0,50.0,41.0,26.0,37.0,47.0,64.0,74,70,76,49,73,47,32,34,25,53,44,50,60,57,71,55,60,54,45,17.2,0.4,73.74,47.8,20.2,0.9,70.59,38.5,31.5,1.0,64.76,43.8,44.3,2.8,63.69,43.8,59.8,5.2,62.98,43.9,70.0,4.0,65.66,39.0,73.7,4.4,69.81,27.3,69.5,5.9,73.48,38.8,64.9,4.3,74.66,41.4,46.8,4.2,71.88,53.0,30.9,0.9,71.83,57.7,22.7,1.0,76.0,56.2
Romeoville,Illinois,41.6475306,-88.0895061,,,,,,,,,,,53.0,43.0,54.0,35.0,50.0,69.0,62.0,65,89,71,48,57,54,50,29,34,49,61,89,74,83,61,57,50,44,53,24.8,1.6,82.85,59.6,30.9,2.5,80.33,55.6,36.5,2.7,71.98,49.1,48.3,3.4,69.37,44.8,61.2,5.9,73.94,49.1,70.6,5.5,69.92,40.3,74.6,10.2,71.87,30.4,71.6,7.4,74.39,35.7,67.9,3.6,75.91,33.4,52.8,6.3,76.81,50.6,36.0,2.1,79.07,46.9,30.8,1.5,80.16,51.6
Duncanville,Texas,32.6518004,-96.9083366,40.0,38.0,48.0,45.0,62.0,53.0,52.0,65.0,48.0,54.0,61.0,45.0,31.0,34.0,56.0,52.0,62.0,51,60,46,51,57,60,43,32,40,47,63,68,53,66,58,48,78,59,39,47.1,1.6,60.95,32.1,53.0,3.9,71.15,45.8,60.4,2.9,60.42,33.3,65.1,5.2,65.05,36.3,75.1,4.7,66.95,32.7,81.7,5.5,67.02,29.3,85.8,1.0,59.56,14.5,84.8,2.0,62.56,20.7,80.1,2.5,65.78,31.6,66.2,7.6,66.83,32.8,55.6,1.7,66.23,33.8,49.5,3.2,64.35,33.6
Clovis,New Mexico,34.4047987,-103.2052272,41.0,37.0,50.0,45.0,64.0,66.0,53.0,61.0,43.0,45.0,48.0,49.0,44.0,59.0,50.0,69.0,65.0,62,59,48,57,46,46,49,41,50,51,56,59,77,67,72,64,56,48,60,38.5,0.4,52.93,19.3,43.9,0.5,48.98,16.5,50.9,0.8,48.1,21.6,57.0,0.9,48.77,20.3,66.7,4.8,48.58,21.9,75.8,3.1,51.17,18.3,78.2,3.4,53.54,20.9,75.3,4.7,65.16,25.0,69.5,2.6,66.99,26.1,54.8,4.5,66.29,27.7,46.0,0.4,57.54,16.5,38.7,0.4,56.29,20.9
The Colony,Texas,33.0806083,-96.8928309,58.0,49.0,71.0,66.0,83.0,92.0,87.0,76.0,80.0,71.0,54.0,74.0,58.0,60.0,59.0,70.0,93.0,106,81,80,61,65,52,58,42,70,78,82,81,75,75,84,55,62,44,63,47.3,2.0,59.98,52.7,53.4,5.2,68.57,64.4,61.2,2.6,57.84,55.0,66.0,3.8,61.49,55.9,76.3,4.2,62.9,56.0,82.4,4.8,63.83,54.6,86.5,1.4,56.94,44.1,85.4,3.6,60.42,47.6,81.0,4.4,63.14,48.2,67.1,7.8,63.48,46.6,56.1,1.4,63.47,52.0,49.3,3.6,63.76,54.8
Culver City,California,34.021122399999996,-118.3964665,36.0,24.0,49.0,30.0,59.0,36.0,47.0,47.0,52.0,35.0,35.0,40.0,40.0,18.0,57.0,36.0,49.0,38,57,54,27,40,33,28,15,23,43,37,49,33,47,36,30,35,25,38,58.2,5.1,64.72,32.0,55.4,3.1,67.89,34.3,58.5,2.0,67.91,29.6,61.6,0.1,66.02,29.9,61.9,0.5,73.04,51.1,65.5,0.0,77.54,51.3,69.9,0.0,79.0,31.8,70.8,0.0,78.93,31.2,70.3,0.1,73.88,30.2,68.6,0.2,60.56,21.9,63.0,1.1,62.39,25.2,58.7,2.1,53.23,19.8
Marlborough,Massachusetts,42.3459271,-71.55228740000001,22.0,23.0,35.0,25.0,37.0,70.0,52.0,45.0,47.0,41.0,40.0,41.0,21.0,21.0,23.0,38.0,39.0,61,55,46,31,32,48,29,20,34,32,32,52,32,44,53,31,34,35,33,27.7,3.3,64.52,46.5,32.6,3.0,64.84,43.9,34.0,3.1,57.67,45.1,47.5,6.0,63.93,53.1,57.7,3.5,67.77,54.8,67.0,4.3,67.03,43.0,73.5,4.2,69.08,35.1,71.1,4.1,71.48,37.3,64.2,3.9,74.78,40.8,53.4,6.2,75.42,48.5,38.3,4.3,67.56,45.8,30.2,3.4,67.9,43.4
Hilton Head Island,South Carolina,32.216316,-80.752608,220.0,123.0,185.0,211.0,254.0,236.0,227.0,229.0,202.0,215.0,182.0,242.0,199.0,160.0,239.0,262.0,275.0,296,207,249,187,222,185,216,166,138,206,257,276,233,253,226,185,232,183,211,51.5,3.7,73.49,28.8,59.5,0.9,77.85,30.3,58.7,0.6,65.89,24.3,66.7,2.5,74.8,25.0,75.8,3.2,75.45,29.2,79.9,2.8,79.5,32.2,82.1,4.0,78.39,27.7,81.2,5.0,82.14,34.5,79.6,0.9,79.49,27.3,72.2,4.9,77.38,27.3,57.7,3.8,78.78,34.7,54.0,6.1,79.42,38.8
Moorhead,Minnesota,46.8737648,-96.7678039,50.0,43.0,64.0,63.0,95.0,136.0,81.0,96.0,95.0,87.0,65.0,78.0,45.0,32.0,64.0,79.0,90.0,119,100,110,68,91,81,54,39,34,38,48,87,109,82,99,73,54,52,55,10.9,0.5,78.46,46.6,11.2,1.0,77.41,37.1,25.6,1.0,77.6,41.9,41.0,0.8,68.6,34.7,58.1,1.7,58.4,33.9,68.8,3.0,62.55,29.7,72.0,2.5,70.51,19.2,67.2,2.7,73.9,27.3,60.4,3.1,74.43,39.4,43.3,2.1,71.52,47.3,26.7,0.5,76.78,57.3,16.5,1.0,80.02,49.7
Bullhead City,Arizona,35.1359386,-114.5285981,72.0,38.0,71.0,68.0,83.0,105.0,69.0,78.0,61.0,80.0,75.0,69.0,58.0,70.0,87.0,87.0,86.0,91,82,80,60,80,62,56,63,36,65,76,77,79,88,60,62,50,62,62,55.3,1.2,45.13,18.1,56.9,1.1,41.42,19.8,66.3,0.4,28.83,10.0,76.0,0.2,18.01,3.9,80.5,0.4,19.78,8.4,93.6,0.0,11.05,1.6,97.6,0.9,22.94,5.8,97.3,0.5,21.57,3.8,88.2,0.4,22.28,3.4,73.5,0.4,21.83,6.1,64.2,1.3,28.05,6.9,55.0,0.6,37.03,10.7
Germantown,Tennessee,35.08675770000001,-89.8100858,42.0,40.0,69.0,63.0,91.0,111.0,84.0,96.0,90.0,73.0,66.0,65.0,44.0,42.0,59.0,81.0,112.0,108,93,85,71,75,53,56,45,54,53,81,81,95,103,77,58,64,65,86,42.0,4.4,72.24,65.0,50.8,7.8,73.62,72.6,53.6,4.1,64.02,59.4,61.8,6.9,69.13,57.4,72.9,4.5,72.61,58.8,78.2,5.3,73.9,58.4,81.3,5.1,75.39,51.9,79.5,4.9,75.38,57.2,77.4,2.3,71.07,39.8,63.9,6.5,72.03,44.2,49.1,3.6,72.83,49.6,44.5,6.8,75.25,62.1
La Quinta,California,33.663357299999994,-116.31000949999999,126.0,129.0,196.0,166.0,169.0,168.0,138.0,123.0,126.0,125.0,128.0,129.0,126.0,116.0,184.0,202.0,204.0,144,163,117,114,131,111,106,102,109,155,189,157,149,138,129,130,126,108,153,57.1,1.1,52.34,13.9,59.0,1.0,45.48,15.5,68.7,0.1,34.36,7.5,77.4,0.0,25.42,1.2,79.7,0.0,30.23,5.2,90.6,0.0,25.32,0.5,96.5,0.3,28.81,2.5,96.0,0.1,27.35,1.9,87.5,0.6,32.34,2.1,75.5,0.3,29.26,3.0,64.4,0.2,39.27,4.8,55.9,0.6,45.36,8.9
Lancaster,Ohio,39.71367539999999,-82.59932940000002,62.0,46.0,81.0,93.0,87.0,109.0,78.0,137.0,90.0,84.0,98.0,66.0,67.0,54.0,88.0,111.0,119.0,110,109,132,117,113,77,79,87,70,91,116,108,123,128,128,116,122,88,110,30.7,3.1,76.0,68.0,39.1,4.1,73.51,59.6,39.7,4.4,67.23,52.8,53.4,4.6,67.73,46.6,66.1,4.7,73.05,45.6,71.1,5.9,74.12,38.0,73.5,5.9,80.42,31.3,71.4,2.6,80.21,31.5,67.9,3.3,79.07,32.4,55.8,3.6,77.53,41.1,39.6,3.8,76.09,54.8,34.0,2.8,78.37,55.7
Sherman,Texas,33.635661799999994,-96.60888050000001,67.0,60.0,82.0,78.0,107.0,57.0,51.0,71.0,58.0,47.0,49.0,49.0,43.0,38.0,34.0,48.0,76.0,73,71,78,69,69,61,61,45,56,71,78,68,84,93,66,64,66,66,61,43.5,2.4,66.37,33.6,49.4,4.3,73.12,46.8,56.9,2.5,63.57,33.4,62.0,4.6,68.19,34.4,72.9,4.3,70.42,29.3,79.6,5.2,69.73,26.2,83.7,4.6,64.63,16.8,82.4,6.9,68.53,20.7,77.9,4.4,70.49,26.1,64.2,6.6,68.47,31.3,53.0,2.7,67.19,30.4,45.9,4.6,69.11,37.3
Ocoee,Florida,28.569167699999998,-81.5439619,55.0,58.0,59.0,66.0,64.0,79.0,72.0,90.0,57.0,65.0,75.0,63.0,80.0,63.0,95.0,92.0,102.0,132,112,108,83,97,82,80,56,55,67,84,72,50,78,90,76,64,59,78,60.8,2.5,71.49,45.0,69.3,0.9,74.5,44.9,67.2,1.0,62.51,35.8,73.4,1.5,66.2,36.7,77.6,5.5,72.05,41.5,80.2,9.7,80.18,45.3,81.4,8.0,79.91,40.9,81.8,8.3,80.67,41.0,81.4,6.6,77.24,38.5,77.3,3.5,76.58,39.7,69.0,1.0,76.17,42.4,64.9,2.7,76.51,46.0
Shakopee,Minnesota,44.79739620000001,-93.5272861,49.0,39.0,49.0,64.0,86.0,110.0,91.0,99.0,87.0,87.0,68.0,61.0,52.0,34.0,49.0,57.0,83.0,110,85,105,77,95,61,57,47,31,37,76,83,84,90,91,76,82,74,48,17.0,0.3,72.69,47.0,19.8,0.8,69.72,37.6,31.6,1.0,64.12,44.6,44.9,2.4,61.16,44.4,60.6,5.3,60.25,43.9,70.9,4.2,63.49,39.6,74.3,5.6,68.29,28.2,69.9,5.1,71.95,38.2,65.6,3.8,72.23,40.9,47.2,3.9,69.52,52.5,31.2,0.7,70.85,58.8,22.7,0.8,75.24,52.9
Woburn,Massachusetts,42.479261799999996,-71.1522765,28.0,17.0,30.0,27.0,29.0,60.0,38.0,62.0,44.0,43.0,20.0,20.0,23.0,7.0,18.0,20.0,31.0,27,49,46,30,38,25,26,25,19,23,38,39,44,47,44,31,26,43,39,30.0,3.3,61.59,47.4,34.5,2.7,62.33,42.1,35.8,2.8,56.2,41.1,48.6,5.9,62.95,48.9,58.1,3.0,67.85,55.0,67.8,4.6,66.13,48.4,74.9,4.8,65.85,39.3,72.6,2.8,68.17,40.7,66.4,3.5,72.74,44.1,56.4,4.6,72.78,44.0,41.6,4.3,65.12,45.5,33.5,3.0,61.28,44.4
Bremerton,Washington,47.565006700000005,-122.6269768,133.0,92.0,143.0,113.0,162.0,177.0,164.0,174.0,177.0,135.0,126.0,133.0,109.0,93.0,146.0,130.0,126.0,163,157,156,125,139,128,93,100,75,108,117,150,139,157,151,130,130,120,108,41.2,7.5,81.93,46.9,38.8,5.5,79.09,40.2,44.9,4.0,74.8,32.3,49.6,4.8,76.13,39.8,56.7,1.2,73.33,44.3,59.5,1.1,71.27,44.5,64.8,0.3,67.99,25.2,65.2,0.4,70.68,28.7,59.8,2.1,75.93,38.2,50.2,3.9,80.66,35.9,45.6,4.3,84.75,47.9,41.7,7.1,87.46,54.3
Rock Island,Illinois,41.5094771,-90.57874759999999,43.0,59.0,71.0,62.0,77.0,67.0,66.0,68.0,71.0,49.0,67.0,59.0,48.0,40.0,52.0,66.0,69.0,80,60,55,50,85,54,60,32,45,36,45,58,65,55,57,73,67,49,72,24.1,1.6,74.9,51.8,30.1,2.6,72.04,45.0,38.0,2.8,64.58,45.8,50.1,4.2,63.01,43.4,63.8,5.6,69.23,44.8,73.6,5.5,66.36,30.9,76.3,4.2,70.16,23.0,72.0,3.6,73.19,29.1,68.7,5.8,72.46,28.7,53.0,4.8,70.51,43.9,36.1,2.1,71.44,47.7,31.0,1.6,73.69,43.6
Cape Girardeau,Missouri,37.3058839,-89.51814759999999,49.0,29.0,51.0,58.0,76.0,72.0,67.0,83.0,74.0,77.0,49.0,62.0,41.0,42.0,60.0,69.0,68.0,90,92,89,72,73,61,67,49,31,65,47,62,46,66,86,70,69,45,72,35.6,3.0,73.82,52.9,43.3,6.0,73.96,48.1,47.1,4.3,67.46,47.8,57.6,6.5,67.8,39.3,70.3,6.5,70.88,32.5,76.3,5.7,71.04,24.7,79.5,3.9,73.34,20.9,75.8,2.3,76.76,25.1,73.2,3.0,73.81,22.0,59.4,4.7,71.6,33.3,43.8,4.4,74.57,40.3,39.4,3.5,74.6,43.8
Annapolis,Maryland,38.9784453,-76.4921829,116.0,113.0,169.0,148.0,179.0,240.0,160.0,205.0,155.0,152.0,178.0,128.0,124.0,107.0,119.0,141.0,208.0,238,177,190,156,177,157,139,112,98,138,154,167,207,194,162,192,168,133,171,37.0,1.9,66.87,20.4,41.2,2.9,71.14,12.3,43.8,3.1,61.19,13.3,57.8,2.6,65.04,14.6,68.9,4.9,71.01,20.9,76.1,1.5,68.94,15.2,81.2,7.3,71.12,11.5,79.4,4.8,72.14,13.2,75.0,2.6,73.04,21.3,63.5,3.5,72.69,16.5,47.2,3.7,68.41,16.9,41.0,2.8,69.72,10.2
Greenacres,Florida,26.6276276,-80.1353896,79.0,64.0,106.0,102.0,93.0,112.0,67.0,95.0,52.0,89.0,73.0,80.0,81.0,65.0,73.0,106.0,102.0,88,103,96,72,75,61,79,66,56,84,95,110,98,138,95,69,93,74,76,67.2,3.5,72.43,48.8,73.2,2.2,73.79,40.2,70.4,1.7,65.23,37.8,75.6,4.1,68.68,40.9,78.7,6.1,73.64,52.7,81.4,9.3,77.76,55.9,83.1,5.9,74.99,51.3,83.1,7.5,76.67,54.5,82.7,3.6,75.56,50.1,80.2,7.6,75.66,48.8,74.1,2.9,75.43,49.2,70.5,3.9,74.1,46.1
Ormond Beach,Florida,29.285812899999996,-81.05588940000001,122.0,143.0,205.0,163.0,221.0,191.0,174.0,199.0,144.0,179.0,131.0,171.0,125.0,144.0,159.0,193.0,217.0,173,189,192,168,187,134,136,128,127,164,181,221,183,209,206,158,165,147,182,58.1,3.8,80.14,46.3,65.8,1.1,84.6,45.4,63.7,1.2,72.9,37.3,70.5,3.0,75.9,41.9,75.5,5.7,79.35,47.1,78.9,8.6,86.09,54.3,80.3,7.0,85.67,49.3,80.9,7.0,86.19,50.7,80.5,5.2,81.09,46.0,76.2,9.2,81.39,48.0,66.4,1.8,84.52,47.1,62.1,3.3,84.82,48.0
Puyallup,Washington,47.1853785,-122.29289740000002,56.0,67.0,87.0,74.0,115.0,113.0,154.0,122.0,85.0,87.0,98.0,64.0,55.0,73.0,73.0,79.0,89.0,109,93,103,77,83,71,72,58,60,90,79,109,116,114,105,83,99,60,65,40.7,1.1,89.14,27.8,39.4,2.5,87.96,29.0,45.2,7.4,81.42,32.6,50.0,3.0,78.06,30.5,57.8,1.8,77.16,37.2,61.0,0.7,73.61,41.4,66.8,0.2,68.43,26.6,66.8,2.2,72.33,33.9,60.2,2.5,78.5,39.2,49.8,3.8,86.48,39.8,44.9,3.2,89.37,48.1,41.2,7.5,91.74,55.3
Pacifica,California,37.613825299999995,-122.48691940000002,21.0,19.0,44.0,31.0,35.0,42.0,30.0,38.0,38.0,45.0,26.0,22.0,16.0,18.0,38.0,36.0,40.0,44,42,31,24,44,35,32,16,24,34,32,36,34,44,31,43,43,23,32,52.5,5.2,77.0,62.7,52.0,4.5,71.22,55.8,53.5,3.2,76.21,56.2,55.3,1.3,75.75,52.5,56.3,0.7,76.14,67.7,59.9,0.2,73.9,52.6,60.7,0.0,77.38,58.2,61.6,0.0,80.15,65.5,62.4,0.1,75.39,50.6,60.2,0.1,65.38,34.6,55.1,2.0,74.04,53.9,52.8,1.6,71.97,48.7
Hurst,Texas,32.82346210000001,-97.1705678,43.0,46.0,68.0,46.0,80.0,64.0,67.0,66.0,56.0,62.0,72.0,49.0,47.0,49.0,54.0,70.0,69.0,72,64,62,59,75,56,60,42,59,69,73,71,65,66,75,45,68,53,47,47.2,2.1,59.21,42.3,53.2,4.5,68.29,57.7,61.0,2.5,58.32,45.6,65.7,4.0,62.87,45.8,76.0,4.0,64.28,44.2,82.3,4.1,64.76,41.1,85.9,2.0,58.24,30.8,84.8,3.8,61.98,35.5,80.0,4.4,65.58,40.6,66.4,7.1,64.98,41.8,55.6,1.2,64.87,45.8,48.8,3.2,64.92,47.2
Lima,Ohio,40.742551,-84.1052256,65.0,64.0,94.0,93.0,118.0,132.0,119.0,112.0,111.0,89.0,82.0,68.0,116.0,62.0,114.0,141.0,111.0,115,71,105,80,79,122,79,54,72,91,124,126,95,121,101,104,130,88,79,27.9,2.9,80.07,64.6,35.4,2.8,77.43,58.3,36.5,3.2,70.99,49.0,50.2,4.3,68.77,47.4,63.0,5.9,71.93,43.1,70.7,5.5,70.97,37.6,73.8,5.0,76.13,29.5,70.7,3.1,77.77,29.1,67.7,2.7,77.28,34.1,55.2,3.7,74.38,42.2,38.2,3.4,76.23,58.8,32.3,2.1,78.65,50.2
Oakley,California,37.9974219,-121.71245359999999,88.0,67.0,102.0,122.0,87.0,135.0,136.0,98.0,102.0,131.0,87.0,131.0,90.0,77.0,102.0,95.0,138.0,116,139,113,87,92,94,83,53,54,69,102,109,103,105,120,119,107,78,78,50.0,6.0,78.52,22.8,50.9,4.3,68.88,7.3,54.9,3.4,70.18,6.8,60.8,1.7,61.51,6.5,62.2,0.3,62.15,11.6,70.6,0.0,53.7,4.1,71.9,0.0,52.64,1.4,72.2,0.0,56.33,5.9,70.5,0.1,53.46,4.6,64.2,0.0,45.53,3.1,55.8,2.1,63.86,15.1,50.2,1.7,68.13,10.8
Huber Heights,Ohio,39.843947,-84.1246608,53.0,72.0,77.0,66.0,104.0,79.0,88.0,87.0,86.0,95.0,81.0,55.0,59.0,44.0,75.0,75.0,72.0,100,106,104,73,74,69,79,68,65,91,90,105,96,103,100,104,99,82,64,30.0,3.1,77.02,74.4,38.3,4.5,74.25,67.7,39.2,4.2,66.11,60.3,53.1,5.2,65.2,60.0,65.8,6.1,71.93,58.6,71.6,5.2,72.39,52.2,75.1,5.6,74.16,44.1,72.9,3.6,74.05,45.4,69.6,3.6,74.24,42.6,56.7,3.1,74.27,48.9,39.7,4.3,74.88,63.6,34.0,3.0,77.73,63.2
Lancaster,Texas,32.5920798,-96.7561082,37.0,46.0,38.0,50.0,57.0,55.0,60.0,71.0,51.0,77.0,45.0,53.0,52.0,42.0,59.0,53.0,57.0,44,55,68,54,64,43,45,32,41,56,58,44,44,63,59,55,61,49,54,45.7,1.5,65.17,37.0,51.9,3.7,74.4,51.3,58.7,2.3,66.01,36.9,63.5,5.7,69.82,37.7,73.6,4.0,71.45,34.9,80.3,4.7,70.4,31.7,83.9,1.1,64.05,16.2,83.2,3.6,66.34,21.4,79.1,3.7,67.48,30.2,65.4,6.8,69.67,33.1,54.5,4.6,69.92,33.0,48.0,73.4,68.73,37.4
Montclair,California,34.0775104,-117.68977759999999,16.0,21.0,24.0,18.0,28.0,28.0,25.0,22.0,23.0,31.0,20.0,30.0,22.0,25.0,23.0,16.0,20.0,25,17,27,23,23,14,19,23,12,12,27,28,20,30,21,25,16,18,15,56.0,3.9,56.97,28.3,54.0,2.1,58.08,27.6,59.0,1.0,58.07,25.8,63.6,0.0,53.38,22.9,62.9,0.4,64.98,29.7,70.9,0.0,60.69,16.8,79.2,0.0,53.03,14.6,77.9,0.0,53.71,12.1,74.1,0.0,54.5,16.8,69.5,0.3,44.33,15.2,62.7,1.5,45.95,26.2,56.8,1.5,45.09,13.5
Brookfield,Wisconsin,43.0605671,-88.1064787,34.0,33.0,52.0,62.0,79.0,90.0,65.0,80.0,50.0,53.0,52.0,35.0,34.0,25.0,36.0,69.0,76.0,59,93,85,57,68,52,47,41,35,45,54,71,90,100,96,68,83,63,38,23.1,1.9,71.13,53.9,27.2,1.7,69.58,42.7,33.1,2.0,63.0,43.9,44.1,3.6,62.49,50.1,56.3,4.8,66.75,53.3,65.4,3.7,69.06,40.9,72.6,2.1,66.74,30.8,69.7,3.6,70.4,45.1,65.3,4.3,73.18,44.6,50.5,5.2,71.38,53.5,33.9,1.8,70.19,55.9,29.0,1.6,71.25,50.1
Park Ridge,Illinois,42.011141200000004,-87.8406192,49.0,48.0,59.0,89.0,96.0,111.0,66.0,116.0,57.0,75.0,75.0,50.0,65.0,44.0,72.0,93.0,80.0,82,84,77,87,48,58,53,39,44,68,74,86,87,61,92,57,70,48,40,25.4,2.2,73.46,64.0,30.9,2.7,71.23,56.8,36.3,2.5,63.87,55.7,47.4,4.9,62.99,58.3,60.0,6.6,66.41,61.4,69.6,5.2,66.4,55.0,75.8,4.4,65.17,46.6,73.2,4.1,66.97,50.7,69.3,3.9,68.03,53.6,54.1,7.0,69.64,64.0,37.1,2.0,70.17,72.7,31.6,1.8,71.3,67.4
Florence,South Carolina,34.1954331,-79.7625625,,,,,,,,,,,,,,,,,,99,105,126,94,112,84,83,84,65,111,95,146,112,108,101,115,123,131,113,46.8,3.0,67.83,31.7,56.0,1.4,69.6,39.5,54.4,2.6,60.58,34.1,65.0,5.1,67.35,30.8,75.0,3.6,69.64,31.0,79.1,4.9,72.74,30.7,81.5,7.4,74.57,27.5,79.8,4.0,77.19,32.3,77.1,6.2,76.4,26.1,67.3,3.4,76.03,31.8,52.9,2.7,73.13,35.6,50.0,6.1,73.04,39.7
Roy,Utah,41.1616108,-112.02633130000001,46.0,59.0,69.0,72.0,113.0,91.0,100.0,100.0,83.0,83.0,85.0,80.0,54.0,64.0,90.0,71.0,99.0,93,79,102,68,76,74,63,48,59,83,78,99,91,103,92,90,87,77,65,28.5,1.9,74.05,49.1,34.3,1.4,64.09,61.0,42.9,3.0,58.83,46.1,49.5,2.5,52.38,43.9,58.4,2.0,48.49,33.3,70.3,0.5,33.31,11.6,80.3,0.1,29.27,9.8,76.6,0.5,29.05,8.7,65.3,1.2,38.65,18.0,47.4,1.1,48.73,22.9,39.8,1.5,58.67,33.2,29.8,0.9,72.81,50.0
Chelsea,Massachusetts,42.3917638,-71.03282840000001,13.0,10.0,8.0,18.0,23.0,19.0,21.0,27.0,20.0,19.0,19.0,15.0,8.0,12.0,12.0,12.0,20.0,30,18,25,13,13,14,14,4,7,10,12,13,20,21,7,4,15,11,19,31.7,4.0,62.63,49.9,35.5,3.2,63.84,40.9,36.9,3.0,57.35,39.9,48.7,5.8,65.3,46.6,58.2,3.0,70.04,57.1,67.7,4.6,66.98,52.8,75.7,4.8,65.27,44.0,73.9,2.8,68.03,44.4,67.3,3.6,70.67,48.2,57.0,4.5,71.58,48.3,42.7,4.8,63.56,49.5,35.6,3.6,59.82,49.4
Valley Stream,New York,40.664269899999994,-73.7084645,55.0,52.0,52.0,50.0,53.0,63.0,46.0,67.0,73.0,70.0,69.0,71.0,76.0,62.0,56.0,58.0,60.0,55,81,82,70,84,65,55,95,54,50,56,62,60,83,73,69,66,51,87,34.0,3.8,64.27,67.3,38.2,3.6,68.45,63.4,39.4,4.9,59.73,62.1,51.2,4.0,69.24,70.1,61.1,5.6,75.34,75.2,70.2,4.4,72.98,67.1,76.9,4.9,75.63,61.6,75.4,3.6,76.41,63.4,70.0,3.1,76.3,65.1,60.2,4.1,75.25,64.1,45.1,3.8,67.28,64.1,37.9,5.5,69.32,69.4
Spartanburg,South Carolina,34.949567200000004,-81.93204820000001,120.0,113.0,182.0,150.0,230.0,191.0,185.0,186.0,163.0,173.0,128.0,172.0,126.0,128.0,174.0,171.0,234.0,188,209,217,174,206,161,148,139,169,187,199,262,202,240,227,160,181,157,160,42.8,3.2,63.47,22.9,51.4,3.5,65.13,28.1,50.7,3.4,56.42,23.3,61.1,5.7,63.33,22.6,70.5,5.7,69.85,23.5,75.0,5.1,70.57,23.4,77.7,4.7,72.62,20.3,76.2,4.6,74.08,23.6,74.2,3.4,70.91,20.9,63.0,5.2,73.38,21.2,48.4,3.3,71.53,22.8,44.6,5.2,70.54,24.0
Lake Oswego,Oregon,45.415734,-122.7163273,68.0,51.0,70.0,84.0,117.0,122.0,109.0,105.0,79.0,85.0,75.0,64.0,80.0,79.0,99.0,123.0,124.0,129,108,108,104,96,63,76,68,52,65,97,112,117,108,110,91,69,94,76,40.5,4.3,80.79,67.6,40.3,5.6,81.64,79.1,46.6,4.0,73.71,66.8,51.9,4.0,71.96,72.0,59.9,1.2,66.83,55.0,63.9,0.9,61.68,53.6,69.7,0.2,57.68,30.1,70.6,0.2,59.74,36.3,63.2,2.1,68.78,50.1,52.8,3.2,73.71,47.4,46.4,3.7,81.32,64.0,41.5,4.4,83.13,68.0
Friendswood,Texas,29.529399800000004,-95.20104470000001,38.0,48.0,59.0,47.0,73.0,84.0,76.0,67.0,62.0,76.0,65.0,80.0,53.0,83.0,77.0,101.0,107.0,100,93,98,76,80,59,66,45,58,74,65,97,94,87,88,72,68,57,63,54.9,3.9,72.34,49.6,63.6,3.7,81.15,74.1,66.4,2.8,71.94,55.6,70.1,2.9,72.24,47.6,78.1,5.6,73.51,47.2,82.7,5.7,74.92,39.3,84.3,4.1,72.93,26.2,84.3,17.3,74.72,31.3,81.1,8.4,76.09,33.3,73.1,5.0,72.82,37.3,62.5,2.2,75.99,47.0,56.4,3.8,74.73,48.1
Westerville,Ohio,40.1266689,-82.93188070000001,52.0,56.0,104.0,82.0,115.0,113.0,129.0,157.0,125.0,115.0,104.0,90.0,78.0,70.0,79.0,106.0,124.0,155,160,149,85,108,99,70,82,103,176,106,130,133,133,130,102,119,84,100,30.2,2.4,77.11,73.5,37.9,3.8,74.63,68.9,38.9,3.7,66.85,59.8,53.2,3.5,64.65,58.8,65.8,4.8,70.07,58.1,71.7,5.2,70.33,51.1,75.4,4.8,72.72,43.6,73.0,3.1,73.69,45.9,69.5,4.1,73.84,42.8,57.0,3.3,72.72,49.2,39.7,3.7,73.5,64.3,34.2,2.3,76.45,62.3
Northglenn,Colorado,39.8961821,-104.98114679999999,51.0,32.0,50.0,49.0,47.0,63.0,48.0,74.0,55.0,47.0,49.0,42.0,38.0,27.0,51.0,55.0,66.0,56,60,60,45,47,44,44,40,45,52,55,55,58,65,65,54,65,46,54,32.3,0.6,58.11,32.6,32.9,0.5,57.48,30.5,41.9,1.4,52.46,34.8,49.2,0.7,50.8,45.7,55.7,3.1,59.72,54.3,68.8,1.6,44.41,34.8,74.3,1.7,46.48,34.5,71.9,1.0,46.87,35.7,66.4,0.8,43.31,37.6,47.5,0.9,54.36,39.5,39.5,0.6,57.7,28.9,32.6,0.2,52.28,34.6
Phenix City,Alabama,32.4709761,-85.0007653,49.0,16.0,25.0,26.0,26.0,21.0,24.0,33.0,27.0,17.0,25.0,22.0,28.0,19.0,25.0,20.0,51.0,24,39,38,24,22,10,16,18,24,24,32,36,33,26,38,28,27,19,20,48.5,6.3,66.56,36.7,58.8,3.1,71.1,55.3,57.9,2.4,58.96,37.2,66.3,4.8,63.28,32.2,75.0,6.4,68.2,33.3,78.8,5.8,74.46,37.9,81.4,5.3,73.39,33.8,80.5,5.6,74.97,36.8,79.6,3.8,67.94,23.8,69.7,4.6,70.54,33.8,55.3,4.2,72.31,37.2,51.7,6.1,72.35,51.6
Grove City,Ohio,39.881451899999995,-83.09296440000001,87.0,57.0,102.0,105.0,141.0,149.0,120.0,148.0,125.0,129.0,111.0,99.0,75.0,69.0,116.0,101.0,123.0,135,132,144,104,124,95,108,90,70,100,118,123,157,161,161,133,141,107,130,29.6,3.3,79.71,66.0,37.5,5.1,76.98,60.8,38.5,5.0,67.59,55.9,52.7,4.1,66.87,51.4,65.1,5.1,73.01,52.3,70.8,5.9,72.4,46.4,74.6,5.3,75.81,37.1,71.8,3.4,76.57,39.1,68.7,4.0,76.08,36.3,55.7,3.4,76.01,44.3,38.9,5.3,76.62,56.9,34.1,3.4,78.88,59.6
Texarkana,Texas,33.425125,-94.0476882,37.0,38.0,59.0,72.0,51.0,47.0,64.0,57.0,55.0,61.0,39.0,51.0,37.0,41.0,46.0,66.0,66.0,49,77,57,64,53,51,59,28,49,54,76,65,44,38,32,20,22,24,27,45.3,3.3,71.25,45.3,51.9,8.1,78.62,61.5,57.5,3.0,66.85,41.2,63.1,5.3,71.53,36.6,72.9,4.8,75.97,33.1,78.5,3.6,75.83,30.7,81.0,4.2,75.18,21.2,80.7,3.5,74.91,25.7,77.2,1.9,73.16,26.1,64.5,4.8,73.47,26.1,52.8,3.3,74.77,40.7,47.2,5.3,73.4,39.5
Addison,Illinois,41.931696,-87.9889556,30.0,30.0,38.0,44.0,52.0,64.0,60.0,65.0,61.0,54.0,52.0,48.0,39.0,31.0,62.0,54.0,63.0,40,61,51,50,50,54,35,29,13,36,37,44,57,64,56,52,43,46,40,25.0,2.2,74.59,70.3,31.2,2.8,70.84,66.8,36.6,2.6,63.22,65.6,48.0,4.9,62.07,68.6,60.5,6.9,66.38,67.5,70.4,5.0,65.61,61.9,75.8,4.2,65.27,52.6,73.1,4.3,67.73,57.1,69.0,4.0,68.94,56.3,53.6,6.9,70.31,63.9,36.5,2.0,71.28,73.2,31.4,1.8,72.64,67.7
Lincoln Park,Michigan,42.250594299999996,-83.17853609999999,65.0,58.0,104.0,54.0,75.0,60.0,76.0,83.0,67.0,77.0,89.0,56.0,79.0,66.0,47.0,67.0,73.0,83,70,84,71,89,77,78,81,44,56,69,98,82,71,79,74,82,69,47,26.4,2.2,75.71,55.6,31.6,2.7,73.55,56.6,34.7,3.1,65.5,50.3,47.5,3.8,65.35,53.4,60.2,5.6,68.91,54.6,69.6,3.1,66.39,52.1,74.9,2.3,67.62,47.1,72.4,4.0,70.35,49.6,67.1,3.7,75.65,49.2,54.2,3.7,73.89,51.2,37.7,3.8,72.6,60.9,31.8,2.0,74.8,57.2
Muskegon,Michigan,43.234181299999996,-86.2483921,89.0,75.0,148.0,87.0,167.0,91.0,93.0,146.0,133.0,119.0,97.0,85.0,92.0,62.0,104.0,101.0,124.0,103,112,122,125,110,98,89,60,68,61,89,101,87,92,79,98,100,81,102,26.5,3.1,74.77,67.8,27.9,3.4,75.14,37.6,32.4,2.4,67.76,32.5,43.0,3.7,67.76,33.9,56.6,4.2,70.79,46.2,65.8,3.0,71.99,41.7,72.5,1.8,71.5,36.2,70.6,3.6,72.93,38.4,65.6,3.6,75.87,39.5,51.7,7.8,73.87,49.6,36.5,2.8,71.48,57.0,32.6,2.8,75.93,55.2
Aventura,Florida,25.9564812,-80.1392121,106.0,97.0,126.0,117.0,128.0,133.0,118.0,119.0,85.0,83.0,109.0,118.0,102.0,87.0,122.0,123.0,127.0,133,126,142,93,114,92,100,95,95,113,111,139,120,109,103,94,106,94,123,68.1,2.6,72.97,49.9,74.0,1.4,74.78,43.9,71.9,1.7,64.96,40.3,77.1,3.2,67.67,41.9,79.8,7.8,73.05,46.9,82.1,10.9,77.64,43.0,84.1,8.6,74.55,37.0,83.7,12.3,77.08,38.6,83.8,7.2,75.26,41.8,81.0,5.8,75.9,46.4,75.3,3.6,76.03,45.7,71.2,3.3,75.11,42.0
Greenfield,Wisconsin,42.9614039,-88.0125865,25.0,27.0,34.0,35.0,55.0,60.0,60.0,59.0,59.0,35.0,34.0,28.0,35.0,20.0,36.0,40.0,67.0,55,59,57,43,48,52,35,35,30,41,46,63,59,60,60,48,55,47,33,24.4,2.1,70.07,60.2,28.4,2.7,68.97,50.7,34.1,2.0,63.08,54.5,44.0,4.1,62.13,61.2,56.5,5.4,67.82,62.2,65.6,5.1,70.05,53.1,73.0,3.2,69.28,44.5,71.0,3.5,70.54,54.7,66.4,5.1,74.04,53.2,51.7,5.4,70.82,60.7,35.1,1.8,69.1,66.0,30.4,1.6,69.22,59.4
Apache Junction,Arizona,33.4150485,-111.5495777,64.0,68.0,101.0,90.0,83.0,92.0,79.0,64.0,91.0,81.0,89.0,80.0,56.0,63.0,106.0,98.0,106.0,86,66,76,80,69,69,54,56,72,86,89,84,73,80,69,96,81,63,75,55.5,0.9,48.62,29.9,56.7,1.6,47.62,33.1,65.7,0.2,32.64,20.1,74.4,0.0,20.64,14.3,79.3,0.1,21.2,14.3,91.2,0.1,16.86,9.8,94.1,1.4,32.09,29.5,92.9,0.7,33.11,24.0,87.4,0.5,31.58,19.4,74.5,1.6,33.72,18.6,64.2,0.8,37.39,20.7,54.8,1.0,45.78,29.9
Monrovia,California,34.14426160000001,-118.0019482,42.0,32.0,37.0,25.0,42.0,51.0,47.0,33.0,39.0,36.0,46.0,40.0,23.0,25.0,51.0,25.0,23.0,26,46,36,33,31,24,24,28,21,22,33,42,35,42,30,22,33,25,25,57.0,4.5,61.41,28.3,55.2,3.7,63.26,36.1,60.4,0.7,58.7,26.4,64.3,0.1,56.83,23.1,63.6,0.6,65.49,41.5,70.2,0.0,64.72,33.2,76.5,0.0,59.31,16.1,76.2,0.0,60.09,15.8,74.1,0.0,59.15,21.0,69.7,0.1,49.82,16.6,63.6,1.1,51.55,18.4,57.0,0.9,49.33,11.8
Spanish Fork,Utah,40.114955,-111.654923,33.0,28.0,71.0,57.0,88.0,86.0,65.0,61.0,61.0,58.0,51.0,47.0,41.0,49.0,57.0,56.0,61.0,66,64,61,50,45,49,54,42,28,54,50,41,59,71,60,59,58,57,70,28.7,2.0,78.98,44.2,34.6,1.4,67.42,50.8,43.3,2.3,61.94,42.4,49.7,2.5,56.69,38.8,57.8,2.5,54.8,34.1,69.5,0.1,40.38,16.8,77.7,0.5,40.61,16.6,74.2,0.4,42.09,15.5,63.9,1.5,48.45,22.0,46.6,1.2,56.82,25.9,38.7,1.3,65.6,30.0,30.4,1.0,76.1,49.8
Beloit,Wisconsin,42.5083482,-89.0317765,39.0,36.0,48.0,51.0,72.0,70.0,78.0,83.0,69.0,60.0,54.0,38.0,42.0,33.0,40.0,66.0,76.0,63,75,72,60,75,73,64,43,46,42,64,79,75,87,96,83,68,66,69,22.7,2.0,78.34,63.0,28.2,3.1,75.17,62.9,35.6,1.9,64.78,58.1,47.6,4.0,63.79,62.7,60.9,6.0,69.13,66.2,70.3,7.9,68.8,59.4,74.4,5.1,70.96,49.5,70.6,5.7,75.11,57.3,66.8,6.1,75.24,50.4,51.4,5.1,74.07,58.0,34.6,1.7,75.58,65.0,29.3,1.7,77.24,64.1
Panama City,Florida,30.158812899999997,-85.6602058,57.0,90.0,98.0,71.0,104.0,110.0,84.0,113.0,108.0,83.0,75.0,81.0,84.0,90.0,103.0,84.0,108.0,86,115,103,72,26,41,78,92,102,90,114,100,108,111,141,92,112,105,120,54.2,8.3,71.98,10.2,63.4,5.4,79.03,0.6,61.8,2.7,70.81,3.9,67.7,7.2,75.57,14.4,75.9,6.1,76.57,22.2,80.6,9.7,79.88,28.7,81.8,9.8,79.65,21.5,81.5,16.9,80.67,22.8,80.4,5.4,76.83,18.2,73.8,6.6,75.31,16.7,59.9,4.5,76.55,26.0,57.4,9.1,78.59,38.7
